{"type": "FeatureCollection", "name": "Schools_2021_to_2022", "crs": {"type": "name", "properties": {"name": "urn:ogc:def:crs:OGC:1.3:CRS84"}}, "features": [{"type": "Feature", "properties": {"id": 1907001, "name": "PALESTINE H S", "spending_all": 10837020.0, "spending_bilingual": 61054.0, "students_el": 8.0, "students_all": 229.0, "spending_percentage_bilingual": 0.005633836608218865, "students_percentage_el": 0.034934497816593885, "ratio": 0.0007042295760273581}, "geometry": {"type": "Point", "coordinates": [-95.6051370286509, 31.7384999953786]}}, {"type": "Feature", "properties": {"id": 2901001, "name": "ANDREWS H S", "spending_all": 13694951.0, "spending_bilingual": 1091.0, "students_el": 14.0, "students_all": 221.0, "spending_percentage_bilingual": 7.966439602449106e-05, "students_percentage_el": 0.06334841628959276, "ratio": 5.690314001749361e-06}, "geometry": {"type": "Point", "coordinates": [-102.563469506912, 32.3278990053349]}}, {"type": "Feature", "properties": {"id": 3903001, "name": "LUFKIN H S", "spending_all": 29370694.0, "spending_bilingual": 115021.0, "students_el": 37.0, "students_all": 481.0, "spending_percentage_bilingual": 0.003916182573009681, "students_percentage_el": 0.07692307692307693, "ratio": 0.0001058427722435049}, "geometry": {"type": "Point", "coordinates": [-94.689139013055, 31.3365099961395]}}, {"type": "Feature", "properties": {"id": 3905001, "name": "DIBOLL H S", "spending_all": 4520849.0, "spending_bilingual": 20345.0, "students_el": 5.0, "students_all": 128.0, "spending_percentage_bilingual": 0.004500260902321666, "students_percentage_el": 0.0390625, "ratio": 0.0009000521804643332}, "geometry": {"type": "Point", "coordinates": [-94.7666530101283, 31.1934560118855]}}, {"type": "Feature", "properties": {"id": 7904001, "name": "LYTLE H S", "spending_all": 5189205.0, "spending_bilingual": 21171.0, "students_el": 11.0, "students_all": 105.0, "spending_percentage_bilingual": 0.004079815694311557, "students_percentage_el": 0.10476190476190476, "ratio": 0.0003708923358465052}, "geometry": {"type": "Point", "coordinates": [-98.8047764948393, 29.2519009645579]}}, {"type": "Feature", "properties": {"id": 7905001, "name": "PLEASANTON H S", "spending_all": 11422354.0, "spending_bilingual": 3382.0, "students_el": 7.0, "students_all": 227.0, "spending_percentage_bilingual": 0.0002960860782287084, "students_percentage_el": 0.030837004405286344, "ratio": 4.229801117552977e-05}, "geometry": {"type": "Point", "coordinates": [-98.4472412182076, 29.0868612839212]}}, {"type": "Feature", "properties": {"id": 8901001, "name": "BELLVILLE H S", "spending_all": 5202112.0, "spending_bilingual": 53582.0, "students_el": 6.0, "students_all": 167.0, "spending_percentage_bilingual": 0.010300047365377756, "students_percentage_el": 0.03592814371257485, "ratio": 0.0017166745608962926}, "geometry": {"type": "Point", "coordinates": [-96.2517489754349, 29.9248110044244]}}, {"type": "Feature", "properties": {"id": 8902001, "name": "SEALY H S", "spending_all": 9746387.0, "spending_bilingual": 2498.0, "students_el": 25.0, "students_all": 194.0, "spending_percentage_bilingual": 0.00025630010382308847, "students_percentage_el": 0.12886597938144329, "ratio": 1.0252004152923539e-05}, "geometry": {"type": "Point", "coordinates": [-96.1744939804128, 29.7640919915522]}}, {"type": "Feature", "properties": {"id": 9901001, "name": "MULESHOE H S", "spending_all": 4138369.0, "spending_bilingual": 68818.0, "students_el": 6.0, "students_all": 75.0, "spending_percentage_bilingual": 0.01662925659843286, "students_percentage_el": 0.08, "ratio": 0.002771542766405477}, "geometry": {"type": "Point", "coordinates": [-102.731583994805, 34.2223860162017]}}, {"type": "Feature", "properties": {"id": 11901001, "name": "BASTROP H S", "spending_all": 11801126.0, "spending_bilingual": 39828.0, "students_el": 27.0, "students_all": 285.0, "spending_percentage_bilingual": 0.0033749321886741997, "students_percentage_el": 0.09473684210526316, "ratio": 0.0001249974884694148}, "geometry": {"type": "Point", "coordinates": [-97.3113630227853, 30.1183139859018]}}, {"type": "Feature", "properties": {"id": 11901002, "name": "CEDAR CREEK H S", "spending_all": 11364330.0, "spending_bilingual": 51640.0, "students_el": 58.0, "students_all": 343.0, "spending_percentage_bilingual": 0.0045440426316377645, "students_percentage_el": 0.16909620991253646, "ratio": 7.834556261444422e-05}, "geometry": {"type": "Point", "coordinates": [-97.4727969697043, 30.1382019794378]}}, {"type": "Feature", "properties": {"id": 11901022, "name": "GENESIS H S", "spending_all": 800858.0, "spending_bilingual": 4044.0, "students_el": 31.0, "students_all": 148.0, "spending_percentage_bilingual": 0.005049584320815925, "students_percentage_el": 0.20945945945945946, "ratio": 0.00016288981680051372}, "geometry": {"type": "Point", "coordinates": [-97.3154310116319, 30.1185169961625]}}, {"type": "Feature", "properties": {"id": 11902001, "name": "ELGIN H S", "spending_all": 12868811.0, "spending_bilingual": 1007.0, "students_el": 30.0, "students_all": 303.0, "spending_percentage_bilingual": 7.825120751248892e-05, "students_percentage_el": 0.099009900990099, "ratio": 2.6083735837496304e-06}, "geometry": {"type": "Point", "coordinates": [-97.4045059995522, 30.3663940119741]}}, {"type": "Feature", "properties": {"id": 11902004, "name": "PHOENIX H S", "spending_all": 1317819.0, "spending_bilingual": 0.0, "students_el": 5.0, "students_all": 30.0, "spending_percentage_bilingual": 0.0, "students_percentage_el": 0.16666666666666666, "ratio": 0.0}, "geometry": {"type": "Point", "coordinates": [-97.4045059995522, 30.3663940119741]}}, {"type": "Feature", "properties": {"id": 14801001, "name": "RICHARD MILBURN ALTER H S (KILLEEN)", "spending_all": 0.0, "spending_bilingual": 0.0, "students_el": 8.0, "students_all": 100.0, "spending_percentage_bilingual": 0.0, "students_percentage_el": 0.08, "ratio": 0.0}, "geometry": {"type": "Point", "coordinates": [-97.724773994724, 31.1245879908432]}}, {"type": "Feature", "properties": {"id": 14801002, "name": "RICHARD MILBURN ACADEMY ODESSA", "spending_all": 0.0, "spending_bilingual": 0.0, "students_el": 26.0, "students_all": 232.0, "spending_percentage_bilingual": 0.0, "students_percentage_el": 0.11206896551724138, "ratio": 0.0}, "geometry": {"type": "Point", "coordinates": [-102.397243036837, 31.8611419907103]}}, {"type": "Feature", "properties": {"id": 14801005, "name": "RICHARD MILBURN ACADEMY HOUSTON (SUBURBAN)", "spending_all": 0.0, "spending_bilingual": 0.0, "students_el": 23.0, "students_all": 134.0, "spending_percentage_bilingual": 0.0, "students_percentage_el": 0.17164179104477612, "ratio": 0.0}, "geometry": {"type": "Point", "coordinates": [-95.411317001978, 29.9838199791088]}}, {"type": "Feature", "properties": {"id": 14801006, "name": "RICHARD MILBURN ACADEMY FORT WORTH", "spending_all": 0.0, "spending_bilingual": 0.0, "students_el": 11.0, "students_all": 95.0, "spending_percentage_bilingual": 0.0, "students_percentage_el": 0.11578947368421053, "ratio": 0.0}, "geometry": {"type": "Point", "coordinates": [-97.4344920081996, 32.7202200110447]}}, {"type": "Feature", "properties": {"id": 14801009, "name": "RICHARD MILBURN ACADEMY PASADENA", "spending_all": 0.0, "spending_bilingual": 0.0, "students_el": 18.0, "students_all": 106.0, "spending_percentage_bilingual": 0.0, "students_percentage_el": 0.16981132075471694, "ratio": 0.0}, "geometry": {"type": "Point", "coordinates": [-95.207699031585, 29.6901019987083]}}, {"type": "Feature", "properties": {"id": 14801010, "name": "RICHARD MILBURN ACADEMY MIDLAND SOUTH", "spending_all": 0.0, "spending_bilingual": 0.0, "students_el": 7.0, "students_all": 65.0, "spending_percentage_bilingual": 0.0, "students_percentage_el": 0.1076923076923077, "ratio": 0.0}, "geometry": {"type": "Point", "coordinates": [-102.066227011867, 31.975506982961]}}, {"type": "Feature", "properties": {"id": 14903001, "name": "BELTON H S", "spending_all": 27336639.0, "spending_bilingual": 53914.0, "students_el": 30.0, "students_all": 715.0, "spending_percentage_bilingual": 0.0019722248956793847, "students_percentage_el": 0.04195804195804196, "ratio": 6.574082985597948e-05}, "geometry": {"type": "Point", "coordinates": [-97.4701720087312, 31.0869029958766]}}, {"type": "Feature", "properties": {"id": 14906001, "name": "KILLEEN H S", "spending_all": 34616826.0, "spending_bilingual": 13151.0, "students_el": 32.0, "students_all": 443.0, "spending_percentage_bilingual": 0.00037990195866021917, "students_percentage_el": 0.07223476297968398, "ratio": 1.1871936208131849e-05}, "geometry": {"type": "Point", "coordinates": [-97.6979290221066, 31.1118870193705]}}, {"type": "Feature", "properties": {"id": 14906002, "name": "C E ELLISON H S", "spending_all": 20452244.0, "spending_bilingual": 6539.0, "students_el": 31.0, "students_all": 577.0, "spending_percentage_bilingual": 0.0003197204179648942, "students_percentage_el": 0.0537261698440208, "ratio": 1.0313561869835297e-05}, "geometry": {"type": "Point", "coordinates": [-97.7385870363626, 31.0838169893626]}}, {"type": "Feature", "properties": {"id": 14906006, "name": "PATHWAYS ACADEMIC CAMPUS", "spending_all": 3080320.0, "spending_bilingual": 1432.0, "students_el": 19.0, "students_all": 284.0, "spending_percentage_bilingual": 0.00046488676501142733, "students_percentage_el": 0.06690140845070422, "ratio": 2.446772447428565e-05}, "geometry": {"type": "Point", "coordinates": [-97.751531040625, 31.0533779823081]}}, {"type": "Feature", "properties": {"id": 14906007, "name": "HARKER HEIGHTS H S", "spending_all": 20686394.0, "spending_bilingual": 471.0, "students_el": 20.0, "students_all": 583.0, "spending_percentage_bilingual": 2.2768588860871546e-05, "students_percentage_el": 0.03430531732418525, "ratio": 1.1384294430435773e-06}, "geometry": {"type": "Point", "coordinates": [-97.6540344997923, 31.0562948632174]}}, {"type": "Feature", "properties": {"id": 14906008, "name": "ROBERT M SHOEMAKER H S", "spending_all": 18654632.0, "spending_bilingual": 2894.0, "students_el": 42.0, "students_all": 453.0, "spending_percentage_bilingual": 0.0001551357325086874, "students_percentage_el": 0.09271523178807947, "ratio": 3.6937079168735093e-06}, "geometry": {"type": "Point", "coordinates": [-97.8028808437759, 31.1044861277327]}}, {"type": "Feature", "properties": {"id": 14908001, "name": "SALADO H S", "spending_all": 5758982.0, "spending_bilingual": 1972.0, "students_el": 6.0, "students_all": 148.0, "spending_percentage_bilingual": 0.0003424216293782477, "students_percentage_el": 0.040540540540540536, "ratio": 5.707027156304128e-05}, "geometry": {"type": "Point", "coordinates": [-97.5400090213992, 30.9647580045783]}}, {"type": "Feature", "properties": {"id": 14909002, "name": "TEMPLE H S", "spending_all": 24274457.0, "spending_bilingual": 0.0, "students_el": 34.0, "students_all": 496.0, "spending_percentage_bilingual": 0.0, "students_percentage_el": 0.06854838709677419, "ratio": 0.0}, "geometry": {"type": "Point", "coordinates": [-97.3540140021444, 31.106544979867]}}, {"type": "Feature", "properties": {"id": 14909008, "name": "FRED W EDWARDS ACADEMY AEC", "spending_all": 710338.0, "spending_bilingual": 0.0, "students_el": 5.0, "students_all": 86.0, "spending_percentage_bilingual": 0.0, "students_percentage_el": 0.05813953488372092, "ratio": 0.0}, "geometry": {"type": "Point", "coordinates": [-97.3570050006802, 31.0972300035619]}}, {"type": "Feature", "properties": {"id": 15805001, "name": "FRANK L MADLA EARLY COLLEGE H S", "spending_all": 0.0, "spending_bilingual": 0.0, "students_el": 7.0, "students_all": 63.0, "spending_percentage_bilingual": 0.0, "students_percentage_el": 0.1111111111111111, "ratio": 0.0}, "geometry": {"type": "Point", "coordinates": [-98.5465519587059, 29.3229399795964]}}, {"type": "Feature", "properties": {"id": 15815041, "name": "HERITAGE ACADEMY OF DEL RIO", "spending_all": 0.0, "spending_bilingual": 0.0, "students_el": 13.0, "students_all": 28.0, "spending_percentage_bilingual": 0.0, "students_percentage_el": 0.4642857142857143, "ratio": 0.0}, "geometry": {"type": "Point", "coordinates": [-100.917703015682, 29.4074169920006]}}, {"type": "Feature", "properties": {"id": 15822001, "name": "JUBILEE SAN ANTONIO", "spending_all": 0.0, "spending_bilingual": 0.0, "students_el": 8.0, "students_all": 73.0, "spending_percentage_bilingual": 0.0, "students_percentage_el": 0.1095890410958904, "ratio": 0.0}, "geometry": {"type": "Point", "coordinates": [-98.4065556846971, 29.3713273295926]}}, {"type": "Feature", "properties": {"id": 15822010, "name": "JUBILEE BROWNSVILLE", "spending_all": 0.0, "spending_bilingual": 0.0, "students_el": 15.0, "students_all": 60.0, "spending_percentage_bilingual": 0.0, "students_percentage_el": 0.25, "ratio": 0.0}, "geometry": {"type": "Point", "coordinates": [-97.5059960123061, 25.9776520147287]}}, {"type": "Feature", "properties": {"id": 15827001, "name": "SCHOOL OF SCIENCE AND TECHNOLOGY", "spending_all": 0.0, "spending_bilingual": 0.0, "students_el": 5.0, "students_all": 73.0, "spending_percentage_bilingual": 0.0, "students_percentage_el": 0.0684931506849315, "ratio": 0.0}, "geometry": {"type": "Point", "coordinates": [-98.4437469941284, 29.5152979946068]}}, {"type": "Feature", "properties": {"id": 15828001, "name": "HARMONY SCIENCE ACAD (SAN ANTONIO)", "spending_all": 0.0, "spending_bilingual": 0.0, "students_el": 11.0, "students_all": 86.0, "spending_percentage_bilingual": 0.0, "students_percentage_el": 0.12790697674418605, "ratio": 0.0}, "geometry": {"type": "Point", "coordinates": [-98.6529769841005, 29.431323017943]}}, {"type": "Feature", "properties": {"id": 15901001, "name": "ALAMO HEIGHTS H S", "spending_all": 13543843.0, "spending_bilingual": 800.0, "students_el": 11.0, "students_all": 414.0, "spending_percentage_bilingual": 5.906743012304558e-05, "students_percentage_el": 0.026570048309178744, "ratio": 5.369766374822326e-06}, "geometry": {"type": "Point", "coordinates": [-98.4664705239954, 29.4906679559614]}}, {"type": "Feature", "properties": {"id": 15904001, "name": "HARLANDALE H S", "spending_all": 16545645.0, "spending_bilingual": 79218.0, "students_el": 51.0, "students_all": 405.0, "spending_percentage_bilingual": 0.004787845986058567, "students_percentage_el": 0.1259259259259259, "ratio": 9.387933305997191e-05}, "geometry": {"type": "Point", "coordinates": [-98.5018159812225, 29.3650030109802]}}, {"type": "Feature", "properties": {"id": 15904002, "name": "MCCOLLUM H S", "spending_all": 15009609.0, "spending_bilingual": 74268.0, "students_el": 18.0, "students_all": 354.0, "spending_percentage_bilingual": 0.004948030291795076, "students_percentage_el": 0.05084745762711865, "ratio": 0.0002748905717663931}, "geometry": {"type": "Point", "coordinates": [-98.5117860039209, 29.3436439936754]}}, {"type": "Feature", "properties": {"id": 15904004, "name": "FRANK M TEJEDA ACADEMY", "spending_all": 2776894.0, "spending_bilingual": 2553.0, "students_el": 18.0, "students_all": 116.0, "spending_percentage_bilingual": 0.0009193725075570042, "students_percentage_el": 0.15517241379310345, "ratio": 5.107625041983357e-05}, "geometry": {"type": "Point", "coordinates": [-98.4892250220171, 29.3225710093446]}}, {"type": "Feature", "properties": {"id": 15905002, "name": "JOHN F KENNEDY H S", "spending_all": 9062916.0, "spending_bilingual": 18901.0, "students_el": 16.0, "students_all": 243.0, "spending_percentage_bilingual": 0.00208553185310335, "students_percentage_el": 0.06584362139917696, "ratio": 0.00013034574081895937}, "geometry": {"type": "Point", "coordinates": [-98.5571740096728, 29.3956980010619]}}, {"type": "Feature", "properties": {"id": 15905003, "name": "MEMORIAL H S", "spending_all": 9912540.0, "spending_bilingual": 17649.0, "students_el": 46.0, "students_all": 309.0, "spending_percentage_bilingual": 0.0017804720081835734, "students_percentage_el": 0.1488673139158576, "ratio": 3.870591322138203e-05}, "geometry": {"type": "Point", "coordinates": [-98.5640810332131, 29.4461630098151]}}, {"type": "Feature", "properties": {"id": 15907001, "name": "BRACKENRIDGE H S", "spending_all": 36882853.0, "spending_bilingual": 4606.0, "students_el": 44.0, "students_all": 333.0, "spending_percentage_bilingual": 0.00012488187939257306, "students_percentage_el": 0.13213213213213212, "ratio": 2.8382245316493875e-06}, "geometry": {"type": "Point", "coordinates": [-98.4876580252976, 29.4054189969892]}}, {"type": "Feature", "properties": {"id": 15907002, "name": "BURBANK H S", "spending_all": 31378570.0, "spending_bilingual": 4666.0, "students_el": 36.0, "students_all": 275.0, "spending_percentage_bilingual": 0.00014870021164125707, "students_percentage_el": 0.13090909090909092, "ratio": 4.1305614344793634e-06}, "geometry": {"type": "Point", "coordinates": [-98.5105870016887, 29.3934003816224]}}, {"type": "Feature", "properties": {"id": 15907003, "name": "EDISON H S", "spending_all": 32320981.0, "spending_bilingual": 5134.0, "students_el": 49.0, "students_all": 327.0, "spending_percentage_bilingual": 0.00015884418854737113, "students_percentage_el": 0.14984709480122324, "ratio": 3.241718133619819e-06}, "geometry": {"type": "Point", "coordinates": [-98.5051860089271, 29.4722609866553]}}, {"type": "Feature", "properties": {"id": 15907005, "name": "HIGHLANDS H S", "spending_all": 14781602.0, "spending_bilingual": 9481.0, "students_el": 54.0, "students_all": 340.0, "spending_percentage_bilingual": 0.0006414054444166472, "students_percentage_el": 0.1588235294117647, "ratio": 1.187787860030828e-05}, "geometry": {"type": "Point", "coordinates": [-98.4424479666004, 29.388700997653]}}, {"type": "Feature", "properties": {"id": 15907006, "name": "HOUSTON H S", "spending_all": 31955369.0, "spending_bilingual": 2802.0, "students_el": 17.0, "students_all": 237.0, "spending_percentage_bilingual": 8.768479562855307e-05, "students_percentage_el": 0.07172995780590717, "ratio": 5.157929154620768e-06}, "geometry": {"type": "Point", "coordinates": [-98.3995939778798, 29.4252400189118]}}, {"type": "Feature", "properties": {"id": 15907007, "name": "JEFFERSON H S", "spending_all": 35246982.0, "spending_bilingual": 3977.0, "students_el": 37.0, "students_all": 351.0, "spending_percentage_bilingual": 0.00011283235540563445, "students_percentage_el": 0.10541310541310543, "ratio": 3.0495231190712015e-06}, "geometry": {"type": "Point", "coordinates": [-98.5385049968081, 29.4650549808028]}}, {"type": "Feature", "properties": {"id": 15907008, "name": "LANIER H S", "spending_all": 33389978.0, "spending_bilingual": 9472.0, "students_el": 55.0, "students_all": 355.0, "spending_percentage_bilingual": 0.00028367793473838167, "students_percentage_el": 0.15492957746478872, "ratio": 5.1577806316069395e-06}, "geometry": {"type": "Point", "coordinates": [-98.5152619789571, 29.4222820039114]}}, {"type": "Feature", "properties": {"id": 15907024, "name": "COOPER ACADEMY AT NAVARRO", "spending_all": 3534800.0, "spending_bilingual": 2324.0, "students_el": 19.0, "students_all": 179.0, "spending_percentage_bilingual": 0.0006574629399117347, "students_percentage_el": 0.10614525139664804, "ratio": 3.460331262693341e-05}, "geometry": {"type": "Point", "coordinates": [-98.5024759729877, 29.4198370017763]}}, {"type": "Feature", "properties": {"id": 15907182, "name": "HEALY-MURPHY", "spending_all": 714431.0, "spending_bilingual": 0.0, "students_el": 8.0, "students_all": 76.0, "spending_percentage_bilingual": 0.0, "students_percentage_el": 0.10526315789473684, "ratio": 0.0}, "geometry": {"type": "Point", "coordinates": [-98.4803999666851, 29.4282000043268]}}, {"type": "Feature", "properties": {"id": 15908001, "name": "SOUTH SAN ANTONIO H S", "spending_all": 19409454.0, "spending_bilingual": 9391.0, "students_el": 56.0, "students_all": 604.0, "spending_percentage_bilingual": 0.0004838363820022964, "students_percentage_el": 0.09271523178807947, "ratio": 8.63993539289815e-06}, "geometry": {"type": "Point", "coordinates": [-98.5457566873212, 29.3485373542156]}}, {"type": "Feature", "properties": {"id": 15909001, "name": "SOMERSET H S", "spending_all": 10610765.0, "spending_bilingual": 868.0, "students_el": 16.0, "students_all": 275.0, "spending_percentage_bilingual": 8.180371537773195e-05, "students_percentage_el": 0.058181818181818175, "ratio": 5.112732211108247e-06}, "geometry": {"type": "Point", "coordinates": [-98.6516277159463, 29.2305837099703]}}, {"type": "Feature", "properties": {"id": 15910001, "name": "LEGACY OF EDUCATIONAL EXCELLENCE H S", "spending_all": 38486337.0, "spending_bilingual": 137721.0, "students_el": 113.0, "students_all": 676.0, "spending_percentage_bilingual": 0.0035784387586690826, "students_percentage_el": 0.16715976331360946, "ratio": 3.166759963423967e-05}, "geometry": {"type": "Point", "coordinates": [-98.514892002364, 29.5062750020898]}}, {"type": "Feature", "properties": {"id": 15910002, "name": "MACARTHUR H S", "spending_all": 20454196.0, "spending_bilingual": 0.0, "students_el": 32.0, "students_all": 580.0, "spending_percentage_bilingual": 0.0, "students_percentage_el": 0.05517241379310345, "ratio": 0.0}, "geometry": {"type": "Point", "coordinates": [-98.4405689959623, 29.5290200077672]}}, {"type": "Feature", "properties": {"id": 15910003, "name": "CHURCHILL H S", "spending_all": 22246120.0, "spending_bilingual": 0.0, "students_el": 35.0, "students_all": 629.0, "spending_percentage_bilingual": 0.0, "students_percentage_el": 0.05564387917329094, "ratio": 0.0}, "geometry": {"type": "Point", "coordinates": [-98.5132240027855, 29.550155983312]}}, {"type": "Feature", "properties": {"id": 15910004, "name": "ROOSEVELT H S", "spending_all": 23049025.0, "spending_bilingual": 31381.0, "students_el": 88.0, "students_all": 683.0, "spending_percentage_bilingual": 0.0013614892603917086, "students_percentage_el": 0.1288433382137628, "ratio": 1.54714688680876e-05}, "geometry": {"type": "Point", "coordinates": [-98.390200965602, 29.5087630017112]}}, {"type": "Feature", "properties": {"id": 15910005, "name": "MADISON H S", "spending_all": 26135990.0, "spending_bilingual": 743.0, "students_el": 25.0, "students_all": 753.0, "spending_percentage_bilingual": 2.8428232487080077e-05, "students_percentage_el": 0.033200531208499334, "ratio": 1.137129299483203e-06}, "geometry": {"type": "Point", "coordinates": [-98.3915269826841, 29.5819370171797]}}, {"type": "Feature", "properties": {"id": 15910007, "name": "REAGAN H S", "spending_all": 24899885.0, "spending_bilingual": 0.0, "students_el": 12.0, "students_all": 807.0, "spending_percentage_bilingual": 0.0, "students_percentage_el": 0.01486988847583643, "ratio": 0.0}, "geometry": {"type": "Point", "coordinates": [-98.486642976692, 29.6198090117765]}}, {"type": "Feature", "properties": {"id": 15910014, "name": "JOHNSON H S", "spending_all": 21440785.0, "spending_bilingual": 109759.0, "students_el": 20.0, "students_all": 738.0, "spending_percentage_bilingual": 0.005119168911026345, "students_percentage_el": 0.027100271002710032, "ratio": 0.0002559584455513172}, "geometry": {"type": "Point", "coordinates": [-98.4336309593013, 29.6574189879959]}}, {"type": "Feature", "properties": {"id": 15911001, "name": "EAST CENTRAL H S", "spending_all": 23883785.0, "spending_bilingual": 277165.0, "students_el": 37.0, "students_all": 765.0, "spending_percentage_bilingual": 0.011604735179118385, "students_percentage_el": 0.04836601307189543, "ratio": 0.0003136414913275239}, "geometry": {"type": "Point", "coordinates": [-98.296508975209, 29.3524169971467]}}, {"type": "Feature", "properties": {"id": 15912001, "name": "SOUTHWEST H S", "spending_all": 23029936.0, "spending_bilingual": 19412.0, "students_el": 29.0, "students_all": 460.0, "spending_percentage_bilingual": 0.0008429029068947477, "students_percentage_el": 0.06304347826086956, "ratio": 2.9065617479129233e-05}, "geometry": {"type": "Point", "coordinates": [-98.674549265736, 29.3076805484186]}}, {"type": "Feature", "properties": {"id": 15915001, "name": "HOLMES H S", "spending_all": 35334449.0, "spending_bilingual": 4979.0, "students_el": 42.0, "students_all": 652.0, "spending_percentage_bilingual": 0.0001409106450195389, "students_percentage_el": 0.06441717791411042, "ratio": 3.355015357608069e-06}, "geometry": {"type": "Point", "coordinates": [-98.6175149954207, 29.4648129957232]}}, {"type": "Feature", "properties": {"id": 15915002, "name": "JAY H S", "spending_all": 26935646.0, "spending_bilingual": 5949.0, "students_el": 62.0, "students_all": 726.0, "spending_percentage_bilingual": 0.0002208597484537776, "students_percentage_el": 0.08539944903581267, "ratio": 3.5622540073189933e-06}, "geometry": {"type": "Point", "coordinates": [-98.6403280213211, 29.4187940004428]}}, {"type": "Feature", "properties": {"id": 15915003, "name": "MARSHALL H S", "spending_all": 30119860.0, "spending_bilingual": 8762.0, "students_el": 22.0, "students_all": 553.0, "spending_percentage_bilingual": 0.0002909044065941873, "students_percentage_el": 0.039783001808318265, "ratio": 1.3222927572463057e-05}, "geometry": {"type": "Point", "coordinates": [-98.6193669774041, 29.513317979741]}}, {"type": "Feature", "properties": {"id": 15915005, "name": "CLARK H S", "spending_all": 24485694.0, "spending_bilingual": 11118.0, "students_el": 30.0, "students_all": 655.0, "spending_percentage_bilingual": 0.00045406105295606484, "students_percentage_el": 0.04580152671755725, "ratio": 1.5135368431868828e-05}, "geometry": {"type": "Point", "coordinates": [-98.5805180285841, 29.5657370192481]}}, {"type": "Feature", "properties": {"id": 15915007, "name": "TAFT H S", "spending_all": 24732846.0, "spending_bilingual": 2742.0, "students_el": 11.0, "students_all": 516.0, "spending_percentage_bilingual": 0.000110864718116144, "students_percentage_el": 0.02131782945736434, "ratio": 1.0078610737831272e-05}, "geometry": {"type": "Point", "coordinates": [-98.7215999596704, 29.4978650189555]}}, {"type": "Feature", "properties": {"id": 15915016, "name": "O'CONNOR H S", "spending_all": 26962244.0, "spending_bilingual": 2053.0, "students_el": 17.0, "students_all": 831.0, "spending_percentage_bilingual": 7.614351387072975e-05, "students_percentage_el": 0.020457280385078217, "ratio": 4.479030227689985e-06}, "geometry": {"type": "Point", "coordinates": [-98.6861799648335, 29.5592210110409]}}, {"type": "Feature", "properties": {"id": 15915019, "name": "WARREN H S", "spending_all": 23475861.0, "spending_bilingual": 4614.0, "students_el": 30.0, "students_all": 735.0, "spending_percentage_bilingual": 0.00019654231212222636, "students_percentage_el": 0.040816326530612235, "ratio": 6.551410404074212e-06}, "geometry": {"type": "Point", "coordinates": [-98.6696360157895, 29.4635839993022]}}, {"type": "Feature", "properties": {"id": 15915022, "name": "STEVENS H S", "spending_all": 20944384.0, "spending_bilingual": 3286.0, "students_el": 31.0, "students_all": 641.0, "spending_percentage_bilingual": 0.0001568916994646393, "students_percentage_el": 0.0483619344773791, "ratio": 5.061022563375461e-06}, "geometry": {"type": "Point", "coordinates": [-98.6847200054239, 29.4404359903288]}}, {"type": "Feature", "properties": {"id": 15915023, "name": "BRANDEIS H S", "spending_all": 26590678.0, "spending_bilingual": 8083.0, "students_el": 28.0, "students_all": 621.0, "spending_percentage_bilingual": 0.000303978710132927, "students_percentage_el": 0.04508856682769726, "ratio": 1.0856382504747393e-05}, "geometry": {"type": "Point", "coordinates": [-98.6463159692066, 29.5653820037765]}}, {"type": "Feature", "properties": {"id": 15915024, "name": "BRENNAN H S", "spending_all": 20002675.0, "spending_bilingual": 12939.0, "students_el": 20.0, "students_all": 662.0, "spending_percentage_bilingual": 0.0006468634820092812, "students_percentage_el": 0.03021148036253777, "ratio": 3.2343174100464065e-05}, "geometry": {"type": "Point", "coordinates": [-98.7251399727315, 29.4583220075547]}}, {"type": "Feature", "properties": {"id": 15916001, "name": "JUDSON H S", "spending_all": 22126348.0, "spending_bilingual": 9865.0, "students_el": 44.0, "students_all": 648.0, "spending_percentage_bilingual": 0.0004458485421995532, "students_percentage_el": 0.06790123456790123, "ratio": 1.0132921413626209e-05}, "geometry": {"type": "Point", "coordinates": [-98.305981028002, 29.507700009348]}}, {"type": "Feature", "properties": {"id": 15916008, "name": "KAREN WAGNER H S", "spending_all": 18101931.0, "spending_bilingual": 6888.0, "students_el": 45.0, "students_all": 519.0, "spending_percentage_bilingual": 0.0003805118912451937, "students_percentage_el": 0.08670520231213873, "ratio": 8.455819805448749e-06}, "geometry": {"type": "Point", "coordinates": [-98.356874016023, 29.4565970116428]}}, {"type": "Feature", "properties": {"id": 15916010, "name": "VETERANS MEMORIAL H S", "spending_all": 32738348.0, "spending_bilingual": 5136.0, "students_el": 7.0, "students_all": 339.0, "spending_percentage_bilingual": 0.00015688024331588142, "students_percentage_el": 0.02064896755162242, "ratio": 2.2411463330840203e-05}, "geometry": {"type": "Point", "coordinates": [-98.3374119908706, 29.6093050202106]}}, {"type": "Feature", "properties": {"id": 15917001, "name": "SOUTHSIDE H S", "spending_all": 12385014.0, "spending_bilingual": 82.0, "students_el": 42.0, "students_all": 403.0, "spending_percentage_bilingual": 6.6209049097562585e-06, "students_percentage_el": 0.1042183622828784, "ratio": 1.5764059308943472e-07}, "geometry": {"type": "Point", "coordinates": [-98.4748757901855, 29.2340368943872]}}, {"type": "Feature", "properties": {"id": 16902001, "name": "BLANCO H S", "spending_all": 3310684.0, "spending_bilingual": 11057.0, "students_el": 5.0, "students_all": 76.0, "spending_percentage_bilingual": 0.0033397932270189485, "students_percentage_el": 0.06578947368421052, "ratio": 0.0006679586454037897}, "geometry": {"type": "Point", "coordinates": [-98.431502040087, 30.0994590202176]}}, {"type": "Feature", "properties": {"id": 19907002, "name": "TEXAS H S", "spending_all": 17237054.0, "spending_bilingual": 101783.0, "students_el": 12.0, "students_all": 414.0, "spending_percentage_bilingual": 0.0059048953492864854, "students_percentage_el": 0.028985507246376805, "ratio": 0.0004920746124405405}, "geometry": {"type": "Point", "coordinates": [-94.0679990007532, 33.4554640026616]}}, {"type": "Feature", "properties": {"id": 20901001, "name": "ALVIN H S", "spending_all": 26348237.0, "spending_bilingual": 97429.0, "students_el": 31.0, "students_all": 613.0, "spending_percentage_bilingual": 0.003697742661112393, "students_percentage_el": 0.05057096247960848, "ratio": 0.00011928202132620622}, "geometry": {"type": "Point", "coordinates": [-95.2525400345949, 29.4178509938284]}}, {"type": "Feature", "properties": {"id": 20901002, "name": "MANVEL H S", "spending_all": 17992577.0, "spending_bilingual": 87373.0, "students_el": 29.0, "students_all": 430.0, "spending_percentage_bilingual": 0.004856058139976281, "students_percentage_el": 0.06744186046511629, "ratio": 0.00016745028068883728}, "geometry": {"type": "Point", "coordinates": [-95.3658890141666, 29.4754039913012]}}, {"type": "Feature", "properties": {"id": 20901006, "name": "SHADOW CREEK H S", "spending_all": 19332753.0, "spending_bilingual": 188799.0, "students_el": 20.0, "students_all": 603.0, "spending_percentage_bilingual": 0.00976575865837628, "students_percentage_el": 0.03316749585406302, "ratio": 0.000488287932918814}, "geometry": {"type": "Point", "coordinates": [-95.4033400280198, 29.5504690049407]}}, {"type": "Feature", "properties": {"id": 20902001, "name": "ANGLETON H S", "spending_all": 17396846.0, "spending_bilingual": 14971.0, "students_el": 19.0, "students_all": 467.0, "spending_percentage_bilingual": 0.00086055828740451, "students_percentage_el": 0.04068522483940043, "ratio": 4.5292541442342634e-05}, "geometry": {"type": "Point", "coordinates": [-95.4166543191415, 29.1996614693014]}}, {"type": "Feature", "properties": {"id": 20905001, "name": "BRAZOSPORT H S", "spending_all": 11587666.0, "spending_bilingual": 54101.0, "students_el": 14.0, "students_all": 222.0, "spending_percentage_bilingual": 0.004668843579026182, "students_percentage_el": 0.06306306306306306, "ratio": 0.0003334888270732987}, "geometry": {"type": "Point", "coordinates": [-95.3722099747105, 28.9596470067041]}}, {"type": "Feature", "properties": {"id": 20905002, "name": "BRAZOSWOOD H S", "spending_all": 61842127.0, "spending_bilingual": 138339.0, "students_el": 25.0, "students_all": 563.0, "spending_percentage_bilingual": 0.002236970277558532, "students_percentage_el": 0.04440497335701599, "ratio": 8.947881110234128e-05}, "geometry": {"type": "Point", "coordinates": [-95.415327993592, 29.0264130153485]}}, {"type": "Feature", "properties": {"id": 20908001, "name": "PEARLAND H S", "spending_all": 37466008.0, "spending_bilingual": 0.0, "students_el": 16.0, "students_all": 733.0, "spending_percentage_bilingual": 0.0, "students_percentage_el": 0.021828103683492497, "ratio": 0.0}, "geometry": {"type": "Point", "coordinates": [-95.2665750289144, 29.5382370011367]}}, {"type": "Feature", "properties": {"id": 20908007, "name": "GLENDA DAWSON H S", "spending_all": 19960494.0, "spending_bilingual": 6240.0, "students_el": 7.0, "students_all": 627.0, "spending_percentage_bilingual": 0.000312617513374168, "students_percentage_el": 0.011164274322169059, "ratio": 4.4659644767738285e-05}, "geometry": {"type": "Point", "coordinates": [-95.3508971816595, 29.5739161131382]}}, {"type": "Feature", "properties": {"id": 20908009, "name": "ROBERT TURNER COLLEGE AND CAREER H S", "spending_all": 9683900.0, "spending_bilingual": 6203.0, "students_el": 6.0, "students_all": 283.0, "spending_percentage_bilingual": 0.0006405477132147173, "students_percentage_el": 0.02120141342756184, "ratio": 0.00010675795220245288}, "geometry": {"type": "Point", "coordinates": [-95.2944639678378, 29.5327250194441]}}, {"type": "Feature", "properties": {"id": 21901001, "name": "A & M CONS H S", "spending_all": 16186828.0, "spending_bilingual": 720.0, "students_el": 26.0, "students_all": 416.0, "spending_percentage_bilingual": 4.448061102521137e-05, "students_percentage_el": 0.0625, "ratio": 1.710792731738899e-06}, "geometry": {"type": "Point", "coordinates": [-96.3177709641586, 30.5926300028724]}}, {"type": "Feature", "properties": {"id": 21901003, "name": "COLLEGE STATION H S", "spending_all": 18693433.0, "spending_bilingual": 1161.0, "students_el": 8.0, "students_all": 465.0, "spending_percentage_bilingual": 6.210737214507362e-05, "students_percentage_el": 0.017204301075268817, "ratio": 7.763421518134203e-06}, "geometry": {"type": "Point", "coordinates": [-96.2865069676224, 30.5569479896581]}}, {"type": "Feature", "properties": {"id": 21902001, "name": "TRAVIS B BRYAN H S", "spending_all": 24417470.0, "spending_bilingual": 12732.0, "students_el": 51.0, "students_all": 506.0, "spending_percentage_bilingual": 0.0005214299433970841, "students_percentage_el": 0.1007905138339921, "ratio": 1.0224116537197727e-05}, "geometry": {"type": "Point", "coordinates": [-96.333907953789, 30.6556830066655]}}, {"type": "Feature", "properties": {"id": 21902002, "name": "JAMES EARL RUDDER H S", "spending_all": 16732004.0, "spending_bilingual": 535.0, "students_el": 59.0, "students_all": 365.0, "spending_percentage_bilingual": 3.1974651691453097e-05, "students_percentage_el": 0.16164383561643836, "ratio": 5.419432490076797e-07}, "geometry": {"type": "Point", "coordinates": [-96.3426789616647, 30.6885400137107]}}, {"type": "Feature", "properties": {"id": 21902017, "name": "THE MARY CATHERINE HARRIS SCHOOL-SCHOOL OF CHOICE", "spending_all": 2844328.0, "spending_bilingual": 0.0, "students_el": 34.0, "students_all": 140.0, "spending_percentage_bilingual": 0.0, "students_percentage_el": 0.24285714285714285, "ratio": 0.0}, "geometry": {"type": "Point", "coordinates": [-96.3455669437594, 30.6531888556812]}}, {"type": "Feature", "properties": {"id": 22004001, "name": "BIG BEND H S", "spending_all": 1471870.0, "spending_bilingual": 41951.0, "students_el": 6.0, "students_all": 8.0, "spending_percentage_bilingual": 0.02850183779817511, "students_percentage_el": 0.75, "ratio": 0.004750306299695852}, "geometry": {"type": "Point", "coordinates": [-103.538504262861, 29.3144106150579]}}, {"type": "Feature", "properties": {"id": 22901001, "name": "ALPINE H S", "spending_all": 5222561.0, "spending_bilingual": 4515.0, "students_el": 5.0, "students_all": 70.0, "spending_percentage_bilingual": 0.0008645183847541465, "students_percentage_el": 0.07142857142857142, "ratio": 0.0001729036769508293}, "geometry": {"type": "Point", "coordinates": [-103.665742997142, 30.3719899813526]}}, {"type": "Feature", "properties": {"id": 26901001, "name": "CALDWELL H S", "spending_all": 17224987.0, "spending_bilingual": 1620.0, "students_el": 7.0, "students_all": 117.0, "spending_percentage_bilingual": 9.404941786022828e-05, "students_percentage_el": 0.059829059829059825, "ratio": 1.3435631122889755e-05}, "geometry": {"type": "Point", "coordinates": [-96.6768979643695, 30.547374012201]}}, {"type": "Feature", "properties": {"id": 27903001, "name": "BURNET H S", "spending_all": 7040414.0, "spending_bilingual": 11439.0, "students_el": 5.0, "students_all": 184.0, "spending_percentage_bilingual": 0.0016247624074379715, "students_percentage_el": 0.02717391304347826, "ratio": 0.0003249524814875943}, "geometry": {"type": "Point", "coordinates": [-98.2338858176763, 30.7789164087653]}}, {"type": "Feature", "properties": {"id": 27904001, "name": "MARBLE FALLS H S", "spending_all": 22004716.0, "spending_bilingual": 4238.0, "students_el": 19.0, "students_all": 265.0, "spending_percentage_bilingual": 0.00019259507825504317, "students_percentage_el": 0.07169811320754718, "ratio": 1.0136583066054905e-05}, "geometry": {"type": "Point", "coordinates": [-98.2522699603903, 30.5829139936859]}}, {"type": "Feature", "properties": {"id": 28902001, "name": "LOCKHART H S", "spending_all": 12311870.0, "spending_bilingual": 0.0, "students_el": 45.0, "students_all": 345.0, "spending_percentage_bilingual": 0.0, "students_percentage_el": 0.13043478260869565, "ratio": 0.0}, "geometry": {"type": "Point", "coordinates": [-97.6769658342059, 29.8742621986416]}}, {"type": "Feature", "properties": {"id": 29901001, "name": "CALHOUN H S", "spending_all": 9499907.0, "spending_bilingual": 3987.0, "students_el": 16.0, "students_all": 268.0, "spending_percentage_bilingual": 0.0004196883190540707, "students_percentage_el": 0.059701492537313425, "ratio": 2.6230519940879418e-05}, "geometry": {"type": "Point", "coordinates": [-96.6422679627962, 28.6211679874127]}}, {"type": "Feature", "properties": {"id": 31901001, "name": "HANNA EARLY COLLEGE H S", "spending_all": 32279402.0, "spending_bilingual": 221774.0, "students_el": 70.0, "students_all": 528.0, "spending_percentage_bilingual": 0.0068704494587601105, "students_percentage_el": 0.13257575757575754, "ratio": 9.814927798228729e-05}, "geometry": {"type": "Point", "coordinates": [-97.4828189597272, 25.9351630158606]}}, {"type": "Feature", "properties": {"id": 31901002, "name": "PORTER EARLY COLLEGE H S", "spending_all": 21027912.0, "spending_bilingual": 251183.0, "students_el": 107.0, "students_all": 407.0, "spending_percentage_bilingual": 0.011945218336466312, "students_percentage_el": 0.2628992628992629, "ratio": 0.00011163755454641413}, "geometry": {"type": "Point", "coordinates": [-97.4715710327769, 25.9128459903502]}}, {"type": "Feature", "properties": {"id": 31901003, "name": "PACE EARLY COLLEGE H S", "spending_all": 21913621.0, "spending_bilingual": 206963.0, "students_el": 70.0, "students_all": 418.0, "spending_percentage_bilingual": 0.009444491168301213, "students_percentage_el": 0.1674641148325359, "ratio": 0.00013492130240430305}, "geometry": {"type": "Point", "coordinates": [-97.5250510105956, 25.9350670024402]}}, {"type": "Feature", "properties": {"id": 31901004, "name": "RIVERA EARLY COLLEGE H S", "spending_all": 23656599.0, "spending_bilingual": 206657.0, "students_el": 58.0, "students_all": 447.0, "spending_percentage_bilingual": 0.008735702033922967, "students_percentage_el": 0.1297539149888143, "ratio": 0.00015061555230901666}, "geometry": {"type": "Point", "coordinates": [-97.4175092349632, 25.9387594047228]}}, {"type": "Feature", "properties": {"id": 31901007, "name": "LOPEZ EARLY COLLEGE H S", "spending_all": 21786989.0, "spending_bilingual": 171891.0, "students_el": 71.0, "students_all": 463.0, "spending_percentage_bilingual": 0.00788961705539026, "students_percentage_el": 0.15334773218142547, "ratio": 0.0001111213669773276}, "geometry": {"type": "Point", "coordinates": [-97.422047982928, 25.8822729978007]}}, {"type": "Feature", "properties": {"id": 31901009, "name": "VETERANS MEMORIAL EARLY COLLEGE H S", "spending_all": 19261969.0, "spending_bilingual": 184552.0, "students_el": 26.0, "students_all": 363.0, "spending_percentage_bilingual": 0.00958115964157143, "students_percentage_el": 0.07162534435261708, "ratio": 0.00036850614006043964}, "geometry": {"type": "Point", "coordinates": [-97.5710031871473, 25.9584983086501]}}, {"type": "Feature", "properties": {"id": 31903001, "name": "HARLINGEN H S", "spending_all": 21806474.0, "spending_bilingual": 6114.0, "students_el": 43.0, "students_all": 640.0, "spending_percentage_bilingual": 0.0002803754518039001, "students_percentage_el": 0.0671875, "ratio": 6.520359344276746e-06}, "geometry": {"type": "Point", "coordinates": [-97.6834787586378, 26.2069573378109]}}, {"type": "Feature", "properties": {"id": 31903002, "name": "HARLINGEN H S - SOUTH", "spending_all": 18656529.0, "spending_bilingual": 57063.0, "students_el": 48.0, "students_all": 528.0, "spending_percentage_bilingual": 0.0030586075255477586, "students_percentage_el": 0.09090909090909093, "ratio": 6.37209901155783e-05}, "geometry": {"type": "Point", "coordinates": [-97.7193239970048, 26.1761550118443]}}, {"type": "Feature", "properties": {"id": 31905001, "name": "LA FERIA H S", "spending_all": 9158805.0, "spending_bilingual": 42247.0, "students_el": 11.0, "students_all": 230.0, "spending_percentage_bilingual": 0.004612719672490025, "students_percentage_el": 0.04782608695652174, "ratio": 0.00041933815204454774}, "geometry": {"type": "Point", "coordinates": [-97.828994997621, 26.1615619926919]}}, {"type": "Feature", "properties": {"id": 31905002, "name": "LA FERIA ACADEMY", "spending_all": 728099.0, "spending_bilingual": 20656.0, "students_el": 6.0, "students_all": 34.0, "spending_percentage_bilingual": 0.028369768396880095, "students_percentage_el": 0.17647058823529413, "ratio": 0.004728294732813349}, "geometry": {"type": "Point", "coordinates": [-97.8268837294005, 26.1618474069323]}}, {"type": "Feature", "properties": {"id": 31906001, "name": "LOS FRESNOS H S", "spending_all": 32595964.0, "spending_bilingual": 42099.0, "students_el": 65.0, "students_all": 813.0, "spending_percentage_bilingual": 0.001291540265537169, "students_percentage_el": 0.07995079950799508, "ratio": 1.986985023903337e-05}, "geometry": {"type": "Point", "coordinates": [-97.4725180197908, 26.0812999903023]}}, {"type": "Feature", "properties": {"id": 31909001, "name": "PORT ISABEL H S", "spending_all": 5627870.0, "spending_bilingual": 29504.0, "students_el": 28.0, "students_all": 158.0, "spending_percentage_bilingual": 0.0052424807253898895, "students_percentage_el": 0.17721518987341772, "ratio": 0.00018723145447821035}, "geometry": {"type": "Point", "coordinates": [-97.2463096839447, 26.0790529820096]}}, {"type": "Feature", "properties": {"id": 31911001, "name": "RIO HONDO H S", "spending_all": 6669394.0, "spending_bilingual": 0.0, "students_el": 8.0, "students_all": 144.0, "spending_percentage_bilingual": 0.0, "students_percentage_el": 0.05555555555555555, "ratio": 0.0}, "geometry": {"type": "Point", "coordinates": [-97.5687349566529, 26.2309210129944]}}, {"type": "Feature", "properties": {"id": 31912001, "name": "SAN BENITO H S", "spending_all": 22847184.0, "spending_bilingual": 18174.0, "students_el": 53.0, "students_all": 604.0, "spending_percentage_bilingual": 0.000795459081521819, "students_percentage_el": 0.08774834437086093, "ratio": 1.500866191550602e-05}, "geometry": {"type": "Point", "coordinates": [-97.6536351270594, 26.1423354433261]}}, {"type": "Feature", "properties": {"id": 31912009, "name": "GATEWAY TO GRADUATION ACADEMY", "spending_all": 818707.0, "spending_bilingual": 0.0, "students_el": 22.0, "students_all": 110.0, "spending_percentage_bilingual": 0.0, "students_percentage_el": 0.2, "ratio": 0.0}, "geometry": {"type": "Point", "coordinates": [-97.6319258166231, 26.1268490916123]}}, {"type": "Feature", "properties": {"id": 31913001, "name": "SANTA MARIA H S", "spending_all": 2352165.0, "spending_bilingual": 8600.0, "students_el": 9.0, "students_all": 55.0, "spending_percentage_bilingual": 0.003656206090984264, "students_percentage_el": 0.16363636363636366, "ratio": 0.0004062451212204738}, "geometry": {"type": "Point", "coordinates": [-97.8433925257444, 26.0774170756376]}}, {"type": "Feature", "properties": {"id": 31913007, "name": "SANTA MARIA ACADEMIC ACADEMY-OPTIONS CAMPUS (6-12)", "spending_all": 135586.0, "spending_bilingual": 0.0, "students_el": 5.0, "students_all": 8.0, "spending_percentage_bilingual": 0.0, "students_percentage_el": 0.625, "ratio": 0.0}, "geometry": {"type": "Point", "coordinates": [-97.8433925257444, 26.0774170756376]}}, {"type": "Feature", "properties": {"id": 31914001, "name": "SANTA ROSA H S", "spending_all": 3632882.0, "spending_bilingual": 220.0, "students_el": 5.0, "students_all": 66.0, "spending_percentage_bilingual": 6.055798123913741e-05, "students_percentage_el": 0.07575757575757576, "ratio": 1.2111596247827482e-05}, "geometry": {"type": "Point", "coordinates": [-97.830649921057, 26.2590000254309]}}, {"type": "Feature", "properties": {"id": 31916001, "name": "SOUTH TEXAS ISD WORLD SCHOLARS", "spending_all": 7965711.0, "spending_bilingual": 9572.0, "students_el": 5.0, "students_all": 125.0, "spending_percentage_bilingual": 0.0012016504239232382, "students_percentage_el": 0.04, "ratio": 0.00024033008478464764}, "geometry": {"type": "Point", "coordinates": [-98.1781239801375, 26.2989270113725]}}, {"type": "Feature", "properties": {"id": 32902002, "name": "PITTSBURG H S", "spending_all": 7326637.0, "spending_bilingual": 21790.0, "students_el": 7.0, "students_all": 169.0, "spending_percentage_bilingual": 0.0029740793763905595, "students_percentage_el": 0.04142011834319527, "ratio": 0.0004248684823415085}, "geometry": {"type": "Point", "coordinates": [-94.9726181867799, 32.9936757801132]}}, {"type": "Feature", "properties": {"id": 35901001, "name": "DIMMITT H S", "spending_all": 4512776.0, "spending_bilingual": 0.0, "students_el": 10.0, "students_all": 73.0, "spending_percentage_bilingual": 0.0, "students_percentage_el": 0.136986301369863, "ratio": 0.0}, "geometry": {"type": "Point", "coordinates": [-102.330866999412, 34.5444226423911]}}, {"type": "Feature", "properties": {"id": 36902001, "name": "BARBERS HILL H S", "spending_all": 20786260.0, "spending_bilingual": 0.0, "students_el": 6.0, "students_all": 370.0, "spending_percentage_bilingual": 0.0, "students_percentage_el": 0.016216216216216217, "ratio": 0.0}, "geometry": {"type": "Point", "coordinates": [-94.8508705393439, 29.8374708563949]}}, {"type": "Feature", "properties": {"id": 36903001, "name": "EAST CHAMBERS H S", "spending_all": 4227229.0, "spending_bilingual": 0.0, "students_el": 7.0, "students_all": 114.0, "spending_percentage_bilingual": 0.0, "students_percentage_el": 0.06140350877192983, "ratio": 0.0}, "geometry": {"type": "Point", "coordinates": [-94.3810999648914, 29.805164994369]}}, {"type": "Feature", "properties": {"id": 37904002, "name": "JACKSONVILLE H S", "spending_all": 12195153.0, "spending_bilingual": 10468.0, "students_el": 35.0, "students_all": 331.0, "spending_percentage_bilingual": 0.0008583738145802682, "students_percentage_el": 0.10574018126888217, "ratio": 2.4524966130864805e-05}, "geometry": {"type": "Point", "coordinates": [-95.2509079944084, 31.9535479892484]}}, {"type": "Feature", "properties": {"id": 37908001, "name": "NEW SUMMERFIELD SCHOOL", "spending_all": 7015074.0, "spending_bilingual": 200248.0, "students_el": 5.0, "students_all": 40.0, "spending_percentage_bilingual": 0.028545386691573037, "students_percentage_el": 0.125, "ratio": 0.005709077338314607}, "geometry": {"type": "Point", "coordinates": [-95.0944657857673, 31.9811004045601]}}, {"type": "Feature", "properties": {"id": 43901001, "name": "ALLEN H S", "spending_all": 45928496.0, "spending_bilingual": 577.0, "students_el": 49.0, "students_all": 1622.0, "spending_percentage_bilingual": 1.2563006635357707e-05, "students_percentage_el": 0.03020961775585697, "ratio": 2.563878905175042e-07}, "geometry": {"type": "Point", "coordinates": [-96.6609720132478, 33.109335993961]}}, {"type": "Feature", "properties": {"id": 43902001, "name": "ANNA H S", "spending_all": 11177293.0, "spending_bilingual": 433193.0, "students_el": 14.0, "students_all": 221.0, "spending_percentage_bilingual": 0.038756521816149934, "students_percentage_el": 0.06334841628959276, "ratio": 0.0027683229868678523}, "geometry": {"type": "Point", "coordinates": [-96.562560003941, 33.3632670083658]}}, {"type": "Feature", "properties": {"id": 43904001, "name": "FARMERSVILLE H S", "spending_all": 5348979.0, "spending_bilingual": 21854.0, "students_el": 5.0, "students_all": 118.0, "spending_percentage_bilingual": 0.004085639521112347, "students_percentage_el": 0.0423728813559322, "ratio": 0.0008171279042224694}, "geometry": {"type": "Point", "coordinates": [-96.3694520181961, 33.1687309981371]}}, {"type": "Feature", "properties": {"id": 43905001, "name": "FRISCO H S", "spending_all": 16206945.0, "spending_bilingual": 81383.0, "students_el": 23.0, "students_all": 375.0, "spending_percentage_bilingual": 0.005021489244271514, "students_percentage_el": 0.06133333333333332, "ratio": 0.00021832561931615279}, "geometry": {"type": "Point", "coordinates": [-96.8221030370255, 33.1320659971481]}}, {"type": "Feature", "properties": {"id": 43905002, "name": "CENTENNIAL H S", "spending_all": 16627136.0, "spending_bilingual": 3324.0, "students_el": 8.0, "students_all": 476.0, "spending_percentage_bilingual": 0.0001999141644117183, "students_percentage_el": 0.01680672268907563, "ratio": 2.4989270551464787e-05}, "geometry": {"type": "Point", "coordinates": [-96.76957901426, 33.1362629838497]}}, {"type": "Feature", "properties": {"id": 43905006, "name": "LIBERTY H S", "spending_all": 14632260.0, "spending_bilingual": 4388.0, "students_el": 12.0, "students_all": 403.0, "spending_percentage_bilingual": 0.0002998853218846576, "students_percentage_el": 0.029776674937965264, "ratio": 2.4990443490388134e-05}, "geometry": {"type": "Point", "coordinates": [-96.7425400003207, 33.1392230106335]}}, {"type": "Feature", "properties": {"id": 43905007, "name": "HERITAGE H S", "spending_all": 16501927.0, "spending_bilingual": 5525.0, "students_el": 6.0, "students_all": 447.0, "spending_percentage_bilingual": 0.000334809383170826, "students_percentage_el": 0.013422818791946308, "ratio": 5.580156386180433e-05}, "geometry": {"type": "Point", "coordinates": [-96.7548179801656, 33.1758559930597]}}, {"type": "Feature", "properties": {"id": 43905008, "name": "LONE STAR H S", "spending_all": 14739887.0, "spending_bilingual": 5925.0, "students_el": 9.0, "students_all": 483.0, "spending_percentage_bilingual": 0.000401970517141685, "students_percentage_el": 0.018633540372670808, "ratio": 4.466339079352056e-05}, "geometry": {"type": "Point", "coordinates": [-96.8666640001434, 33.191308995214]}}, {"type": "Feature", "properties": {"id": 43905009, "name": "INDEPENDENCE H S", "spending_all": 15138955.0, "spending_bilingual": 7643.0, "students_el": 13.0, "students_all": 468.0, "spending_percentage_bilingual": 0.0005048565109018422, "students_percentage_el": 0.027777777777777776, "ratio": 3.8835116223218634e-05}, "geometry": {"type": "Point", "coordinates": [-96.7536590139523, 33.1646190036641]}}, {"type": "Feature", "properties": {"id": 43905011, "name": "LEBANON TRAIL H S", "spending_all": 13962156.0, "spending_bilingual": 4405.0, "students_el": 14.0, "students_all": 473.0, "spending_percentage_bilingual": 0.0003154956870557813, "students_percentage_el": 0.029598308668076112, "ratio": 2.253540621827009e-05}, "geometry": {"type": "Point", "coordinates": [-96.7991229602564, 33.1234489810857]}}, {"type": "Feature", "properties": {"id": 43907002, "name": "MCKINNEY H S", "spending_all": 21378215.0, "spending_bilingual": 381809.0, "students_el": 47.0, "students_all": 736.0, "spending_percentage_bilingual": 0.0178597230872643, "students_percentage_el": 0.06385869565217392, "ratio": 0.00037999410823966596}, "geometry": {"type": "Point", "coordinates": [-96.6327069778447, 33.188120980399]}}, {"type": "Feature", "properties": {"id": 43907004, "name": "MCKINNEY NORTH H S", "spending_all": 19570940.0, "spending_bilingual": 54028.0, "students_el": 14.0, "students_all": 514.0, "spending_percentage_bilingual": 0.0027606236593643433, "students_percentage_el": 0.027237354085603117, "ratio": 0.00019718740424031023}, "geometry": {"type": "Point", "coordinates": [-96.6420590017215, 33.2310120166913]}}, {"type": "Feature", "properties": {"id": 43907007, "name": "MCKINNEY BOYD H S", "spending_all": 21757299.0, "spending_bilingual": 341687.0, "students_el": 18.0, "students_all": 681.0, "spending_percentage_bilingual": 0.015704476920595706, "students_percentage_el": 0.02643171806167401, "ratio": 0.0008724709400330947}, "geometry": {"type": "Point", "coordinates": [-96.6784139992067, 33.2030499880665]}}, {"type": "Feature", "properties": {"id": 43910001, "name": "PLANO SR H S", "spending_all": 21633434.0, "spending_bilingual": 92787.0, "students_el": 70.0, "students_all": 1297.0, "spending_percentage_bilingual": 0.004289055542453408, "students_percentage_el": 0.05397070161912105, "ratio": 6.127222203504868e-05}, "geometry": {"type": "Point", "coordinates": [-96.7532300283431, 33.0283979900752]}}, {"type": "Feature", "properties": {"id": 43910006, "name": "PLANO EAST SR H S", "spending_all": 21867882.0, "spending_bilingual": 46928.0, "students_el": 81.0, "students_all": 1187.0, "spending_percentage_bilingual": 0.0021459782890725317, "students_percentage_el": 0.06823925863521482, "ratio": 2.6493559124352244e-05}, "geometry": {"type": "Point", "coordinates": [-96.6452990270284, 33.0399689975712]}}, {"type": "Feature", "properties": {"id": 43910010, "name": "PLANO WEST SENIOR H S", "spending_all": 18952797.0, "spending_bilingual": 54450.0, "students_el": 80.0, "students_all": 1350.0, "spending_percentage_bilingual": 0.0028729268825071048, "students_percentage_el": 0.05925925925925926, "ratio": 3.591158603133881e-05}, "geometry": {"type": "Point", "coordinates": [-96.8144269744253, 33.0451200129783]}}, {"type": "Feature", "properties": {"id": 43911001, "name": "PRINCETON H S", "spending_all": 12525738.0, "spending_bilingual": 58906.0, "students_el": 21.0, "students_all": 338.0, "spending_percentage_bilingual": 0.004702796753372935, "students_percentage_el": 0.0621301775147929, "ratio": 0.00022394270254156833}, "geometry": {"type": "Point", "coordinates": [-96.4856309798858, 33.1746590152014]}}, {"type": "Feature", "properties": {"id": 43912001, "name": "PROSPER H S", "spending_all": 28665292.0, "spending_bilingual": 22623.0, "students_el": 15.0, "students_all": 802.0, "spending_percentage_bilingual": 0.0007892122640857801, "students_percentage_el": 0.018703241895261846, "ratio": 5.261415093905201e-05}, "geometry": {"type": "Point", "coordinates": [-96.798461041244, 33.2591700147844]}}, {"type": "Feature", "properties": {"id": 43914001, "name": "WYLIE H S", "spending_all": 39823593.0, "spending_bilingual": 56331.0, "students_el": 25.0, "students_all": 611.0, "spending_percentage_bilingual": 0.0014145132509766258, "students_percentage_el": 0.040916530278232416, "ratio": 5.658053003906503e-05}, "geometry": {"type": "Point", "coordinates": [-96.5697830249666, 33.0074879907782]}}, {"type": "Feature", "properties": {"id": 43914003, "name": "WYLIE EAST H S", "spending_all": 40280648.0, "spending_bilingual": 125532.0, "students_el": 20.0, "students_all": 405.0, "spending_percentage_bilingual": 0.0031164344724543647, "students_percentage_el": 0.04938271604938271, "ratio": 0.00015582172362271822}, "geometry": {"type": "Point", "coordinates": [-96.4958754334045, 33.0154271158688]}}, {"type": "Feature", "properties": {"id": 43914004, "name": "ACHIEVE ACADEMY", "spending_all": 2335952.0, "spending_bilingual": 2856.0, "students_el": 5.0, "students_all": 104.0, "spending_percentage_bilingual": 0.0012226278622163471, "students_percentage_el": 0.04807692307692308, "ratio": 0.00024452557244326943}, "geometry": {"type": "Point", "coordinates": [-96.536974090282, 33.0046806796697]}}, {"type": "Feature", "properties": {"id": 43918001, "name": "COMMUNITY H S", "spending_all": 51121474.0, "spending_bilingual": 43370.0, "students_el": 9.0, "students_all": 154.0, "spending_percentage_bilingual": 0.0008483714691012236, "students_percentage_el": 0.05844155844155844, "ratio": 9.426349656680263e-05}, "geometry": {"type": "Point", "coordinates": [-96.3652715799195, 33.0567319306342]}}, {"type": "Feature", "properties": {"id": 46901001, "name": "NEW BRAUNFELS H S", "spending_all": 14946744.0, "spending_bilingual": 35605.0, "students_el": 16.0, "students_all": 544.0, "spending_percentage_bilingual": 0.0023821241602853442, "students_percentage_el": 0.029411764705882356, "ratio": 0.00014888276001783402}, "geometry": {"type": "Point", "coordinates": [-98.1493639938532, 29.7186780016885]}}, {"type": "Feature", "properties": {"id": 46901038, "name": "THE NBISD LEARNING CENTER", "spending_all": 714340.0, "spending_bilingual": 0.0, "students_el": 7.0, "students_all": 106.0, "spending_percentage_bilingual": 0.0, "students_percentage_el": 0.0660377358490566, "ratio": 0.0}, "geometry": {"type": "Point", "coordinates": [-98.1182549792838, 29.6384760128578]}}, {"type": "Feature", "properties": {"id": 46902001, "name": "CANYON H S", "spending_all": 20461743.0, "spending_bilingual": 71434.0, "students_el": 22.0, "students_all": 560.0, "spending_percentage_bilingual": 0.0034911004404658977, "students_percentage_el": 0.039285714285714285, "ratio": 0.0001586863836575408}, "geometry": {"type": "Point", "coordinates": [-98.0880330209072, 29.7091759825856]}}, {"type": "Feature", "properties": {"id": 46902002, "name": "SMITHSON VALLEY H S", "spending_all": 22688269.0, "spending_bilingual": 5466.0, "students_el": 9.0, "students_all": 651.0, "spending_percentage_bilingual": 0.00024091745386128842, "students_percentage_el": 0.013824884792626729, "ratio": 2.67686059845876e-05}, "geometry": {"type": "Point", "coordinates": [-98.3608590253237, 29.8037380166962]}}, {"type": "Feature", "properties": {"id": 46902003, "name": "CANYON LAKE H S", "spending_all": 11321588.0, "spending_bilingual": 5466.0, "students_el": 6.0, "students_all": 225.0, "spending_percentage_bilingual": 0.00048279446310888543, "students_percentage_el": 0.02666666666666667, "ratio": 8.046574385148091e-05}, "geometry": {"type": "Point", "coordinates": [-98.2149939600032, 29.9437360003162]}}, {"type": "Feature", "properties": {"id": 49901001, "name": "GAINESVILLE H S", "spending_all": 11767857.0, "spending_bilingual": 35934.0, "students_el": 24.0, "students_all": 199.0, "spending_percentage_bilingual": 0.0030535721159765964, "students_percentage_el": 0.12060301507537688, "ratio": 0.00012723217149902485}, "geometry": {"type": "Point", "coordinates": [-97.1615339896019, 33.6044960017891]}}, {"type": "Feature", "properties": {"id": 50910001, "name": "COPPERAS COVE H S", "spending_all": 18815708.0, "spending_bilingual": 83491.0, "students_el": 12.0, "students_all": 498.0, "spending_percentage_bilingual": 0.004437303129916768, "students_percentage_el": 0.024096385542168683, "ratio": 0.00036977526082639735}, "geometry": {"type": "Point", "coordinates": [-97.913344016713, 31.1266620091445]}}, {"type": "Feature", "properties": {"id": 52901001, "name": "CRANE H S", "spending_all": 3608352.0, "spending_bilingual": 52111.0, "students_el": 8.0, "students_all": 85.0, "spending_percentage_bilingual": 0.0144417728647316, "students_percentage_el": 0.09411764705882353, "ratio": 0.00180522160809145}, "geometry": {"type": "Point", "coordinates": [-102.353985041177, 31.393786013214]}}, {"type": "Feature", "properties": {"id": 56901001, "name": "DALHART H S", "spending_all": 4533372.0, "spending_bilingual": 54789.0, "students_el": 9.0, "students_all": 128.0, "spending_percentage_bilingual": 0.012085705739568691, "students_percentage_el": 0.0703125, "ratio": 0.0013428561932854102}, "geometry": {"type": "Point", "coordinates": [-102.499205033585, 36.04701800098]}}, {"type": "Feature", "properties": {"id": 57802001, "name": "PEGASUS CHARTER H S", "spending_all": 0.0, "spending_bilingual": 0.0, "students_el": 5.0, "students_all": 30.0, "spending_percentage_bilingual": 0.0, "students_percentage_el": 0.16666666666666666, "ratio": 0.0}, "geometry": {"type": "Point", "coordinates": [-96.8011849923935, 32.7848449866069]}}, {"type": "Feature", "properties": {"id": 57803004, "name": "UPLIFT WILLIAMS PREPARATORY H S", "spending_all": 0.0, "spending_bilingual": 0.0, "students_el": 36.0, "students_all": 109.0, "spending_percentage_bilingual": 0.0, "students_percentage_el": 0.3302752293577982, "ratio": 0.0}, "geometry": {"type": "Point", "coordinates": [-96.8672789799409, 32.8358370079716]}}, {"type": "Feature", "properties": {"id": 57803005, "name": "UPLIFT LUNA PREPARATORY H S", "spending_all": 0.0, "spending_bilingual": 0.0, "students_el": 17.0, "students_all": 87.0, "spending_percentage_bilingual": 0.0, "students_percentage_el": 0.19540229885057472, "ratio": 0.0}, "geometry": {"type": "Point", "coordinates": [-96.7854089933304, 32.7847550076376]}}, {"type": "Feature", "properties": {"id": 57803006, "name": "UPLIFT HEIGHTS PREPARATORY H S", "spending_all": 0.0, "spending_bilingual": 0.0, "students_el": 25.0, "students_all": 126.0, "spending_percentage_bilingual": 0.0, "students_percentage_el": 0.1984126984126984, "ratio": 0.0}, "geometry": {"type": "Point", "coordinates": [-96.8652424022151, 32.7925727620234]}}, {"type": "Feature", "properties": {"id": 57803007, "name": "UPLIFT HAMPTON PREPARATORY H S", "spending_all": 0.0, "spending_bilingual": 0.0, "students_el": 6.0, "students_all": 66.0, "spending_percentage_bilingual": 0.0, "students_percentage_el": 0.09090909090909093, "ratio": 0.0}, "geometry": {"type": "Point", "coordinates": [-96.8583010398611, 32.6395889943367]}}, {"type": "Feature", "properties": {"id": 57803009, "name": "UPLIFT SUMMIT INTERNATIONAL H S", "spending_all": 0.0, "spending_bilingual": 0.0, "students_el": 6.0, "students_all": 69.0, "spending_percentage_bilingual": 0.0, "students_percentage_el": 0.08695652173913042, "ratio": 0.0}, "geometry": {"type": "Point", "coordinates": [-97.1008849689661, 32.7529800091202]}}, {"type": "Feature", "properties": {"id": 57803010, "name": "UPLIFT ATLAS PREPARATORY - H S", "spending_all": 0.0, "spending_bilingual": 0.0, "students_el": 24.0, "students_all": 84.0, "spending_percentage_bilingual": 0.0, "students_percentage_el": 0.2857142857142857, "ratio": 0.0}, "geometry": {"type": "Point", "coordinates": [-96.7750430090276, 32.8015329791637]}}, {"type": "Feature", "properties": {"id": 57803013, "name": "UPLIFT INFINITY H S", "spending_all": 0.0, "spending_bilingual": 0.0, "students_el": 10.0, "students_all": 76.0, "spending_percentage_bilingual": 0.0, "students_percentage_el": 0.13157894736842105, "ratio": 0.0}, "geometry": {"type": "Point", "coordinates": [-96.9597959970876, 32.7999910033822]}}, {"type": "Feature", "properties": {"id": 57803014, "name": "UPLIFT MIGHTY H S", "spending_all": 0.0, "spending_bilingual": 0.0, "students_el": 19.0, "students_all": 62.0, "spending_percentage_bilingual": 0.0, "students_percentage_el": 0.3064516129032258, "ratio": 0.0}, "geometry": {"type": "Point", "coordinates": [-97.2828059631246, 32.7096669848435]}}, {"type": "Feature", "properties": {"id": 57804001, "name": "TEXANS CAN ACADEMY - DALLAS NORTH", "spending_all": 0.0, "spending_bilingual": 0.0, "students_el": 69.0, "students_all": 209.0, "spending_percentage_bilingual": 0.0, "students_percentage_el": 0.3301435406698565, "ratio": 0.0}, "geometry": {"type": "Point", "coordinates": [-96.7060990060642, 32.9081460096307]}}, {"type": "Feature", "properties": {"id": 57804002, "name": "TEXANS CAN ACADEMY - OAK CLIFF", "spending_all": 0.0, "spending_bilingual": 0.0, "students_el": 91.0, "students_all": 388.0, "spending_percentage_bilingual": 0.0, "students_percentage_el": 0.2345360824742268, "ratio": 0.0}, "geometry": {"type": "Point", "coordinates": [-96.8276029902858, 32.7416340128995]}}, {"type": "Feature", "properties": {"id": 57804003, "name": "TEXANS CAN ACADEMY - CARROLLTON-FARMERS BRANCH", "spending_all": 0.0, "spending_bilingual": 0.0, "students_el": 107.0, "students_all": 196.0, "spending_percentage_bilingual": 0.0, "students_percentage_el": 0.5459183673469388, "ratio": 0.0}, "geometry": {"type": "Point", "coordinates": [-96.8891359662518, 32.9423720033653]}}, {"type": "Feature", "properties": {"id": 57804004, "name": "TEXANS CAN ACADEMY - PLEASANT GROVE", "spending_all": 0.0, "spending_bilingual": 0.0, "students_el": 49.0, "students_all": 271.0, "spending_percentage_bilingual": 0.0, "students_percentage_el": 0.1808118081180812, "ratio": 0.0}, "geometry": {"type": "Point", "coordinates": [-96.6490839587577, 32.7318569838128]}}, {"type": "Feature", "properties": {"id": 57804005, "name": "TEXANS CAN ACADEMY - GRANT EAST", "spending_all": 0.0, "spending_bilingual": 0.0, "students_el": 12.0, "students_all": 179.0, "spending_percentage_bilingual": 0.0, "students_percentage_el": 0.0670391061452514, "ratio": 0.0}, "geometry": {"type": "Point", "coordinates": [-96.7745749640633, 32.6540530156342]}}, {"type": "Feature", "properties": {"id": 57804006, "name": "TEXANS CAN ACADEMY - AUSTIN", "spending_all": 0.0, "spending_bilingual": 0.0, "students_el": 82.0, "students_all": 242.0, "spending_percentage_bilingual": 0.0, "students_percentage_el": 0.33884297520661155, "ratio": 0.0}, "geometry": {"type": "Point", "coordinates": [-97.7090109872672, 30.2724649800748]}}, {"type": "Feature", "properties": {"id": 57804007, "name": "TEXANS CAN ACADEMY - FORT WORTH WESTCREEK", "spending_all": 0.0, "spending_bilingual": 0.0, "students_el": 11.0, "students_all": 201.0, "spending_percentage_bilingual": 0.0, "students_percentage_el": 0.05472636815920398, "ratio": 0.0}, "geometry": {"type": "Point", "coordinates": [-97.3636449768342, 32.6469320020103]}}, {"type": "Feature", "properties": {"id": 57804008, "name": "TEXANS CAN ACADEMY - FORT WORTH LANCASTER AVENUE", "spending_all": 0.0, "spending_bilingual": 0.0, "students_el": 56.0, "students_all": 279.0, "spending_percentage_bilingual": 0.0, "students_percentage_el": 0.2007168458781362, "ratio": 0.0}, "geometry": {"type": "Point", "coordinates": [-97.3156699812846, 32.7458809983095]}}, {"type": "Feature", "properties": {"id": 57804009, "name": "TEXANS CAN ACADEMY - HOUSTON NORTH", "spending_all": 0.0, "spending_bilingual": 0.0, "students_el": 28.0, "students_all": 203.0, "spending_percentage_bilingual": 0.0, "students_percentage_el": 0.13793103448275862, "ratio": 0.0}, "geometry": {"type": "Point", "coordinates": [-95.3526710053626, 29.7918199976948]}}, {"type": "Feature", "properties": {"id": 57804010, "name": "TEXANS CAN ACADEMY - HOUSTON HOBBY", "spending_all": 0.0, "spending_bilingual": 0.0, "students_el": 34.0, "students_all": 206.0, "spending_percentage_bilingual": 0.0, "students_percentage_el": 0.1650485436893204, "ratio": 0.0}, "geometry": {"type": "Point", "coordinates": [-96.8302249996839, 32.7467949999893]}}, {"type": "Feature", "properties": {"id": 57804011, "name": "TEXANS CAN ACADEMY - SAN ANTONIO", "spending_all": 0.0, "spending_bilingual": 0.0, "students_el": 20.0, "students_all": 194.0, "spending_percentage_bilingual": 0.0, "students_percentage_el": 0.10309278350515463, "ratio": 0.0}, "geometry": {"type": "Point", "coordinates": [-98.5366759808118, 29.377564004775]}}, {"type": "Feature", "properties": {"id": 57804012, "name": "TEXANS CAN ACADEMY - HOUSTON SOUTHWEST", "spending_all": 0.0, "spending_bilingual": 0.0, "students_el": 36.0, "students_all": 204.0, "spending_percentage_bilingual": 0.0, "students_percentage_el": 0.17647058823529413, "ratio": 0.0}, "geometry": {"type": "Point", "coordinates": [-95.5301189955952, 29.6597859964266]}}, {"type": "Feature", "properties": {"id": 57804013, "name": "TEXANS CAN ACADEMY - GARLAND", "spending_all": 0.0, "spending_bilingual": 0.0, "students_el": 22.0, "students_all": 155.0, "spending_percentage_bilingual": 0.0, "students_percentage_el": 0.14193548387096774, "ratio": 0.0}, "geometry": {"type": "Point", "coordinates": [-96.6626555549099, 32.9588096444496]}}, {"type": "Feature", "properties": {"id": 57806101, "name": "ADVANTAGE ACADEMY", "spending_all": 0.0, "spending_bilingual": 0.0, "students_el": 5.0, "students_all": 31.0, "spending_percentage_bilingual": 0.0, "students_percentage_el": 0.16129032258064516, "ratio": 0.0}, "geometry": {"type": "Point", "coordinates": [-97.017656023107, 32.7119679848347]}}, {"type": "Feature", "properties": {"id": 57807001, "name": "LIFE SCHOOL OAK CLIFF", "spending_all": 0.0, "spending_bilingual": 0.0, "students_el": 6.0, "students_all": 115.0, "spending_percentage_bilingual": 0.0, "students_percentage_el": 0.052173913043478265, "ratio": 0.0}, "geometry": {"type": "Point", "coordinates": [-96.8225668362904, 32.6908341307906]}}, {"type": "Feature", "properties": {"id": 57828001, "name": "WINFREE ACADEMY CHARTER SCHOOL (IRVING)", "spending_all": 0.0, "spending_bilingual": 0.0, "students_el": 13.0, "students_all": 70.0, "spending_percentage_bilingual": 0.0, "students_percentage_el": 0.18571428571428567, "ratio": 0.0}, "geometry": {"type": "Point", "coordinates": [-96.9884360380926, 32.8691179833083]}}, {"type": "Feature", "properties": {"id": 57828002, "name": "WINFREE ACADEMY CHARTER SCHOOL (LEWISVILLE)", "spending_all": 0.0, "spending_bilingual": 0.0, "students_el": 11.0, "students_all": 81.0, "spending_percentage_bilingual": 0.0, "students_percentage_el": 0.13580246913580246, "ratio": 0.0}, "geometry": {"type": "Point", "coordinates": [-96.9889910043314, 33.0279659872406]}}, {"type": "Feature", "properties": {"id": 57828003, "name": "WINFREE ACADEMY CHARTER SCHOOL (RICHARDSON)", "spending_all": 0.0, "spending_bilingual": 0.0, "students_el": 17.0, "students_all": 128.0, "spending_percentage_bilingual": 0.0, "students_percentage_el": 0.1328125, "ratio": 0.0}, "geometry": {"type": "Point", "coordinates": [-96.7220159882472, 32.9708459989437]}}, {"type": "Feature", "properties": {"id": 57828004, "name": "WINFREE ACADEMY CHARTER SCHOOL - GRAND PRAIRIE", "spending_all": 0.0, "spending_bilingual": 0.0, "students_el": 9.0, "students_all": 85.0, "spending_percentage_bilingual": 0.0, "students_percentage_el": 0.10588235294117647, "ratio": 0.0}, "geometry": {"type": "Point", "coordinates": [-97.0614499589484, 32.6944949857551]}}, {"type": "Feature", "properties": {"id": 57828005, "name": "WINFREE ACADEMY NORTH RICHLAND HILLS", "spending_all": 0.0, "spending_bilingual": 0.0, "students_el": 14.0, "students_all": 123.0, "spending_percentage_bilingual": 0.0, "students_percentage_el": 0.11382113821138212, "ratio": 0.0}, "geometry": {"type": "Point", "coordinates": [-97.2477449650581, 32.810506980213]}}, {"type": "Feature", "properties": {"id": 57828006, "name": "WINFREE ACADEMY CHARTER SCHOOL DALLAS", "spending_all": 0.0, "spending_bilingual": 0.0, "students_el": 8.0, "students_all": 74.0, "spending_percentage_bilingual": 0.0, "students_percentage_el": 0.10810810810810813, "ratio": 0.0}, "geometry": {"type": "Point", "coordinates": [-96.8610099867215, 32.6395579812159]}}, {"type": "Feature", "properties": {"id": 57830002, "name": "INSPIRED VISION ACADEMY SECONDARY", "spending_all": 0.0, "spending_bilingual": 0.0, "students_el": 23.0, "students_all": 77.0, "spending_percentage_bilingual": 0.0, "students_percentage_el": 0.2987012987012987, "ratio": 0.0}, "geometry": {"type": "Point", "coordinates": [-96.6747930156851, 32.7495759924382]}}, {"type": "Feature", "properties": {"id": 57834001, "name": "EVOLUTION ACADEMY CHARTER SCHOOL", "spending_all": 0.0, "spending_bilingual": 0.0, "students_el": 20.0, "students_all": 227.0, "spending_percentage_bilingual": 0.0, "students_percentage_el": 0.0881057268722467, "ratio": 0.0}, "geometry": {"type": "Point", "coordinates": [-96.7419619835587, 32.9356959850817]}}, {"type": "Feature", "properties": {"id": 57834003, "name": "EVOLUTION ACADEMY BEAUMONT", "spending_all": 0.0, "spending_bilingual": 0.0, "students_el": 5.0, "students_all": 56.0, "spending_percentage_bilingual": 0.0, "students_percentage_el": 0.08928571428571429, "ratio": 0.0}, "geometry": {"type": "Point", "coordinates": [-94.1212209846607, 30.0417999917763]}}, {"type": "Feature", "properties": {"id": 57834004, "name": "EVOLUTION ACADEMY HOUSTON", "spending_all": 0.0, "spending_bilingual": 0.0, "students_el": 7.0, "students_all": 122.0, "spending_percentage_bilingual": 0.0, "students_percentage_el": 0.05737704918032788, "ratio": 0.0}, "geometry": {"type": "Point", "coordinates": [-95.4528230130716, 30.0674829818542]}}, {"type": "Feature", "properties": {"id": 57840001, "name": "RICHLAND COLLEGIATE H S OF MATH SCIENCE ENGINEERIN", "spending_all": 0.0, "spending_bilingual": 0.0, "students_el": 5.0, "students_all": 232.0, "spending_percentage_bilingual": 0.0, "students_percentage_el": 0.02155172413793104, "ratio": 0.0}, "geometry": {"type": "Point", "coordinates": [-96.7291530107029, 32.9218839911533]}}, {"type": "Feature", "properties": {"id": 57848003, "name": "ILTEXAS GARLAND H S", "spending_all": 0.0, "spending_bilingual": 0.0, "students_el": 22.0, "students_all": 140.0, "spending_percentage_bilingual": 0.0, "students_percentage_el": 0.15714285714285714, "ratio": 0.0}, "geometry": {"type": "Point", "coordinates": [-96.6668189771141, 32.9574890170046]}}, {"type": "Feature", "properties": {"id": 57848006, "name": "ILTEXAS ARLINGTON-GRAND PRAIRIE H S", "spending_all": 0.0, "spending_bilingual": 0.0, "students_el": 21.0, "students_all": 87.0, "spending_percentage_bilingual": 0.0, "students_percentage_el": 0.2413793103448276, "ratio": 0.0}, "geometry": {"type": "Point", "coordinates": [-97.0722580041036, 32.6139039933747]}}, {"type": "Feature", "properties": {"id": 57848009, "name": "ILTEXAS KELLER SAGINAW H S", "spending_all": 0.0, "spending_bilingual": 0.0, "students_el": 6.0, "students_all": 109.0, "spending_percentage_bilingual": 0.0, "students_percentage_el": 0.05504587155963303, "ratio": 0.0}, "geometry": {"type": "Point", "coordinates": [-97.3575870401098, 32.9220639931588]}}, {"type": "Feature", "properties": {"id": 57903001, "name": "TURNER H S", "spending_all": 33026444.0, "spending_bilingual": 96349.0, "students_el": 82.0, "students_all": 484.0, "spending_percentage_bilingual": 0.002917328913763771, "students_percentage_el": 0.16942148760330578, "ratio": 3.557718187516794e-05}, "geometry": {"type": "Point", "coordinates": [-96.8916709887251, 32.9479779875941]}}, {"type": "Feature", "properties": {"id": 57903002, "name": "SMITH H S", "spending_all": 19100590.0, "spending_bilingual": 94038.0, "students_el": 94.0, "students_all": 458.0, "spending_percentage_bilingual": 0.004923303416281904, "students_percentage_el": 0.2052401746724891, "ratio": 5.237556825831813e-05}, "geometry": {"type": "Point", "coordinates": [-96.8917829723063, 32.9794859809933]}}, {"type": "Feature", "properties": {"id": 57903003, "name": "GRIMES EDUCATION CENTER", "spending_all": 1744648.0, "spending_bilingual": 0.0, "students_el": 15.0, "students_all": 71.0, "spending_percentage_bilingual": 0.0, "students_percentage_el": 0.2112676056338028, "ratio": 0.0}, "geometry": {"type": "Point", "coordinates": [-96.9159609901076, 32.9411599798493]}}, {"type": "Feature", "properties": {"id": 57903006, "name": "CREEKVIEW H S", "spending_all": 20658518.0, "spending_bilingual": 306.0, "students_el": 53.0, "students_all": 386.0, "spending_percentage_bilingual": 1.4812291956276825e-05, "students_percentage_el": 0.13730569948186527, "ratio": 2.7947720672220426e-07}, "geometry": {"type": "Point", "coordinates": [-96.9131689782657, 33.0034870158132]}}, {"type": "Feature", "properties": {"id": 57903007, "name": "RANCHVIEW H S", "spending_all": 13974754.0, "spending_bilingual": 38055.0, "students_el": 23.0, "students_all": 206.0, "spending_percentage_bilingual": 0.002723124857868697, "students_percentage_el": 0.1116504854368932, "ratio": 0.00011839673295081291}, "geometry": {"type": "Point", "coordinates": [-96.9454999907319, 32.9187269885597]}}, {"type": "Feature", "properties": {"id": 57904001, "name": "CEDAR HILL H S", "spending_all": 15452163.0, "spending_bilingual": 0.0, "students_el": 13.0, "students_all": 545.0, "spending_percentage_bilingual": 0.0, "students_percentage_el": 0.023853211009174317, "ratio": 0.0}, "geometry": {"type": "Point", "coordinates": [-96.9493490198414, 32.5831663826225]}}, {"type": "Feature", "properties": {"id": 57904003, "name": "CEDAR HILL COLLEGIATE H S", "spending_all": 1593055.0, "spending_bilingual": 0.0, "students_el": 6.0, "students_all": 85.0, "spending_percentage_bilingual": 0.0, "students_percentage_el": 0.07058823529411765, "ratio": 0.0}, "geometry": {"type": "Point", "coordinates": [-96.955210005937, 32.6228600151776]}}, {"type": "Feature", "properties": {"id": 57905001, "name": "BRYAN ADAMS H S", "spending_all": 20715550.0, "spending_bilingual": 33485.0, "students_el": 127.0, "students_all": 463.0, "spending_percentage_bilingual": 0.0016164185841071078, "students_percentage_el": 0.2742980561555076, "ratio": 1.2727705386670141e-05}, "geometry": {"type": "Point", "coordinates": [-96.6802209692223, 32.8272880112328]}}, {"type": "Feature", "properties": {"id": 57905002, "name": "W H ADAMSON H S", "spending_all": 13367403.0, "spending_bilingual": 13355.0, "students_el": 109.0, "students_all": 353.0, "spending_percentage_bilingual": 0.0009990721458760538, "students_percentage_el": 0.3087818696883853, "ratio": 9.165799503450035e-06}, "geometry": {"type": "Point", "coordinates": [-96.8205269877303, 32.7484270006057]}}, {"type": "Feature", "properties": {"id": 57905003, "name": "NEW TECH H S AT B F DARRELL H S", "spending_all": 9394033.0, "spending_bilingual": 764.0, "students_el": 12.0, "students_all": 56.0, "spending_percentage_bilingual": 8.132822186168602e-05, "students_percentage_el": 0.21428571428571427, "ratio": 6.777351821807168e-06}, "geometry": {"type": "Point", "coordinates": [-96.7900639660791, 32.6918069939976]}}, {"type": "Feature", "properties": {"id": 57905005, "name": "MOISES E MOLINA H S", "spending_all": 26646798.0, "spending_bilingual": 15198.0, "students_el": 170.0, "students_all": 559.0, "spending_percentage_bilingual": 0.0005703499534915978, "students_percentage_el": 0.3041144901610018, "ratio": 3.3549997264211635e-06}, "geometry": {"type": "Point", "coordinates": [-96.9103639739182, 32.7226979949166]}}, {"type": "Feature", "properties": {"id": 57905006, "name": "HILLCREST H S", "spending_all": 17508059.0, "spending_bilingual": 41284.0, "students_el": 88.0, "students_all": 270.0, "spending_percentage_bilingual": 0.002357999821682118, "students_percentage_el": 0.32592592592592595, "ratio": 2.679545251911498e-05}, "geometry": {"type": "Point", "coordinates": [-96.7846230218349, 32.8831530189967]}}, {"type": "Feature", "properties": {"id": 57905007, "name": "THOMAS JEFFERSON H S", "spending_all": 21746213.0, "spending_bilingual": 50644.0, "students_el": 252.0, "students_all": 402.0, "spending_percentage_bilingual": 0.002328865260355907, "students_percentage_el": 0.6268656716417911, "ratio": 9.241528810936138e-06}, "geometry": {"type": "Point", "coordinates": [-96.8449500096352, 32.8819060010612]}}, {"type": "Feature", "properties": {"id": 57905008, "name": "JUSTIN F KIMBALL H S", "spending_all": 17336305.0, "spending_bilingual": 34564.0, "students_el": 99.0, "students_all": 334.0, "spending_percentage_bilingual": 0.001993735112528304, "students_percentage_el": 0.2964071856287425, "ratio": 2.0138738510386907e-05}, "geometry": {"type": "Point", "coordinates": [-96.8772250312102, 32.6993740084038]}}, {"type": "Feature", "properties": {"id": 57905009, "name": "LINCOLN HUMANITIES/COMMUNICATIONS MAGNET HIGH SCH", "spending_all": 6800912.0, "spending_bilingual": 2226.0, "students_el": 17.0, "students_all": 119.0, "spending_percentage_bilingual": 0.00032730904325772777, "students_percentage_el": 0.14285714285714285, "ratio": 1.9253473132807516e-05}, "geometry": {"type": "Point", "coordinates": [-96.7518809607377, 32.7564670071467]}}, {"type": "Feature", "properties": {"id": 57905012, "name": "L G PINKSTON H S", "spending_all": 30072284.0, "spending_bilingual": 5917.0, "students_el": 97.0, "students_all": 260.0, "spending_percentage_bilingual": 0.0001967592484827557, "students_percentage_el": 0.3730769230769231, "ratio": 2.028445860646966e-06}, "geometry": {"type": "Point", "coordinates": [-96.8585270161089, 32.7815280171043]}}, {"type": "Feature", "properties": {"id": 57905013, "name": "FRANKLIN D ROOSEVELT H S OF INNOVATION", "spending_all": 26897257.0, "spending_bilingual": 6658.0, "students_el": 53.0, "students_all": 202.0, "spending_percentage_bilingual": 0.0002475345348412293, "students_percentage_el": 0.2623762376237624, "ratio": 4.670462921532628e-06}, "geometry": {"type": "Point", "coordinates": [-96.7954579729071, 32.7416369887561]}}, {"type": "Feature", "properties": {"id": 57905014, "name": "W W SAMUELL H S", "spending_all": 21118674.0, "spending_bilingual": 53774.0, "students_el": 154.0, "students_all": 441.0, "spending_percentage_bilingual": 0.0025462772899472767, "students_percentage_el": 0.3492063492063492, "ratio": 1.6534268116540757e-05}, "geometry": {"type": "Point", "coordinates": [-96.6677229648429, 32.7471050070905]}}, {"type": "Feature", "properties": {"id": 57905015, "name": "SEAGOVILLE H S", "spending_all": 29254716.0, "spending_bilingual": 15827.0, "students_el": 109.0, "students_all": 363.0, "spending_percentage_bilingual": 0.0005410067901530817, "students_percentage_el": 0.3002754820936639, "ratio": 4.963365047275978e-06}, "geometry": {"type": "Point", "coordinates": [-96.5779484824365, 32.6767827867963]}}, {"type": "Feature", "properties": {"id": 57905016, "name": "SOUTH OAK CLIFF H S", "spending_all": 27447861.0, "spending_bilingual": 2838.0, "students_el": 65.0, "students_all": 298.0, "spending_percentage_bilingual": 0.00010339603512273688, "students_percentage_el": 0.2181208053691275, "ratio": 1.5907082326574906e-06}, "geometry": {"type": "Point", "coordinates": [-96.8162360398613, 32.6995610089335]}}, {"type": "Feature", "properties": {"id": 57905017, "name": "H GRADY SPRUCE H S", "spending_all": 15573121.0, "spending_bilingual": 14966.0, "students_el": 249.0, "students_all": 459.0, "spending_percentage_bilingual": 0.0009610148152062775, "students_percentage_el": 0.5424836601307189, "ratio": 3.8594972498244076e-06}, "geometry": {"type": "Point", "coordinates": [-96.6546409928875, 32.7107370188983]}}, {"type": "Feature", "properties": {"id": 57905018, "name": "SUNSET H S", "spending_all": 18287942.0, "spending_bilingual": 14717.0, "students_el": 108.0, "students_all": 446.0, "spending_percentage_bilingual": 0.0008047378977907957, "students_percentage_el": 0.24215246636771304, "ratio": 7.451276831396257e-06}, "geometry": {"type": "Point", "coordinates": [-96.8541169620281, 32.7461990066789]}}, {"type": "Feature", "properties": {"id": 57905021, "name": "W T WHITE H S", "spending_all": 33711305.0, "spending_bilingual": 33313.0, "students_el": 207.0, "students_all": 542.0, "spending_percentage_bilingual": 0.0009881848240523468, "students_percentage_el": 0.3819188191881919, "ratio": 4.773839729721482e-06}, "geometry": {"type": "Point", "coordinates": [-96.8316699736903, 32.9168579932019]}}, {"type": "Feature", "properties": {"id": 57905022, "name": "WOODROW WILSON H S", "spending_all": 21107136.0, "spending_bilingual": 1118.0, "students_el": 142.0, "students_all": 459.0, "spending_percentage_bilingual": 5.296786830766618e-05, "students_percentage_el": 0.3093681917211329, "ratio": 3.730131570962407e-07}, "geometry": {"type": "Point", "coordinates": [-96.7503110304297, 32.8058409835746]}}, {"type": "Feature", "properties": {"id": 57905023, "name": "DAVID W CARTER H S", "spending_all": 27112826.0, "spending_bilingual": 24969.0, "students_el": 64.0, "students_all": 293.0, "spending_percentage_bilingual": 0.0009209294523558703, "students_percentage_el": 0.21843003412969286, "ratio": 1.4389522693060474e-05}, "geometry": {"type": "Point", "coordinates": [-96.8486229595819, 32.6496800091252]}}, {"type": "Feature", "properties": {"id": 57905024, "name": "NORTH DALLAS H S", "spending_all": 11121350.0, "spending_bilingual": 37331.0, "students_el": 93.0, "students_all": 226.0, "spending_percentage_bilingual": 0.0033566968038952105, "students_percentage_el": 0.4115044247787609, "ratio": 3.609351402037861e-05}, "geometry": {"type": "Point", "coordinates": [-96.7947200297056, 32.8105180032034]}}, {"type": "Feature", "properties": {"id": 57905025, "name": "SKYLINE H S", "spending_all": 38449220.0, "spending_bilingual": 52569.0, "students_el": 202.0, "students_all": 1055.0, "spending_percentage_bilingual": 0.0013672318970319815, "students_percentage_el": 0.1914691943127962, "ratio": 6.7684747377820865e-06}, "geometry": {"type": "Point", "coordinates": [-96.6905349853013, 32.7805179984069]}}, {"type": "Feature", "properties": {"id": 57905028, "name": "EMMETT J CONRAD H S", "spending_all": 11668337.0, "spending_bilingual": 37053.0, "students_el": 143.0, "students_all": 364.0, "spending_percentage_bilingual": 0.003175516785296825, "students_percentage_el": 0.3928571428571429, "ratio": 2.2206411085991786e-05}, "geometry": {"type": "Point", "coordinates": [-96.7519719883166, 32.8764710076309]}}, {"type": "Feature", "properties": {"id": 57905032, "name": "JAMES MADISON H S", "spending_all": 7164598.0, "spending_bilingual": 1386.0, "students_el": 18.0, "students_all": 119.0, "spending_percentage_bilingual": 0.0001934511887477846, "students_percentage_el": 0.15126050420168066, "ratio": 1.074728826376581e-05}, "geometry": {"type": "Point", "coordinates": [-96.7648170042013, 32.7712590120938]}}, {"type": "Feature", "properties": {"id": 57905033, "name": "SCHOOL OF BUSINESS AND MANAGEMENT", "spending_all": 3626702.0, "spending_bilingual": 380.0, "students_el": 5.0, "students_all": 112.0, "spending_percentage_bilingual": 0.0001047783909458235, "students_percentage_el": 0.04464285714285714, "ratio": 2.09556781891647e-05}, "geometry": {"type": "Point", "coordinates": [-96.8070710156148, 32.7528479940398]}}, {"type": "Feature", "properties": {"id": 57905085, "name": "KATHLYN JOY GILLIAM COLLEGIATE ACADEMY", "spending_all": 2985544.0, "spending_bilingual": 0.0, "students_el": 22.0, "students_all": 69.0, "spending_percentage_bilingual": 0.0, "students_percentage_el": 0.3188405797101449, "ratio": 0.0}, "geometry": {"type": "Point", "coordinates": [-96.7943839989224, 32.6626230088448]}}, {"type": "Feature", "properties": {"id": 57905380, "name": "WILMER-HUTCHINS H S", "spending_all": 9053723.0, "spending_bilingual": 7304.0, "students_el": 54.0, "students_all": 200.0, "spending_percentage_bilingual": 0.0008067399455450537, "students_percentage_el": 0.27, "ratio": 1.4939628621204699e-05}, "geometry": {"type": "Point", "coordinates": [-96.7308500107194, 32.654077994304]}}, {"type": "Feature", "properties": {"id": 57906001, "name": "DESOTO H S", "spending_all": 20733426.0, "spending_bilingual": 1484.0, "students_el": 17.0, "students_all": 747.0, "spending_percentage_bilingual": 7.157524279875405e-05, "students_percentage_el": 0.02275769745649264, "ratio": 4.210308399926709e-06}, "geometry": {"type": "Point", "coordinates": [-96.8704139797214, 32.5798209954426]}}, {"type": "Feature", "properties": {"id": 57907001, "name": "DUNCANVILLE H S", "spending_all": 35588640.0, "spending_bilingual": 0.0, "students_el": 69.0, "students_all": 1000.0, "spending_percentage_bilingual": 0.0, "students_percentage_el": 0.069, "ratio": 0.0}, "geometry": {"type": "Point", "coordinates": [-96.9284574098815, 32.6623527292951]}}, {"type": "Feature", "properties": {"id": 57907004, "name": "MARY E SMITHEY PACE H S", "spending_all": 1312490.0, "spending_bilingual": 0.0, "students_el": 12.0, "students_all": 65.0, "spending_percentage_bilingual": 0.0, "students_percentage_el": 0.18461538461538465, "ratio": 0.0}, "geometry": {"type": "Point", "coordinates": [-96.9028449878059, 32.6493290172204]}}, {"type": "Feature", "properties": {"id": 57909002, "name": "GARLAND H S", "spending_all": 24614185.0, "spending_bilingual": 8418.0, "students_el": 110.0, "students_all": 555.0, "spending_percentage_bilingual": 0.00034199791705473903, "students_percentage_el": 0.1981981981981982, "ratio": 3.1090719732249003e-06}, "geometry": {"type": "Point", "coordinates": [-96.6456700099629, 32.9100170185706]}}, {"type": "Feature", "properties": {"id": 57909003, "name": "S GARLAND H S", "spending_all": 21732276.0, "spending_bilingual": 10142.0, "students_el": 114.0, "students_all": 536.0, "spending_percentage_bilingual": 0.0004666791458013877, "students_percentage_el": 0.2126865671641791, "ratio": 4.093676717556033e-06}, "geometry": {"type": "Point", "coordinates": [-96.6198000202547, 32.8725080020427]}}, {"type": "Feature", "properties": {"id": 57909004, "name": "N GARLAND H S", "spending_all": 24341942.0, "spending_bilingual": 1938.0, "students_el": 84.0, "students_all": 636.0, "spending_percentage_bilingual": 7.961566911957969e-05, "students_percentage_el": 0.1320754716981132, "ratio": 9.478055847569011e-07}, "geometry": {"type": "Point", "coordinates": [-96.6588330351165, 32.9314730142682]}}, {"type": "Feature", "properties": {"id": 57909005, "name": "LAKEVIEW CENTENNIAL H S", "spending_all": 19811102.0, "spending_bilingual": 3652.0, "students_el": 36.0, "students_all": 527.0, "spending_percentage_bilingual": 0.00018434108309573087, "students_percentage_el": 0.0683111954459203, "ratio": 5.12058564154808e-06}, "geometry": {"type": "Point", "coordinates": [-96.5760609862255, 32.8569369818563]}}, {"type": "Feature", "properties": {"id": 57909008, "name": "NAAMAN FOREST H S", "spending_all": 18236678.0, "spending_bilingual": 12219.0, "students_el": 86.0, "students_all": 542.0, "spending_percentage_bilingual": 0.0006700233452605788, "students_percentage_el": 0.15867158671586715, "ratio": 7.790969130936963e-06}, "geometry": {"type": "Point", "coordinates": [-96.638590990182, 32.9583599798293]}}, {"type": "Feature", "properties": {"id": 57909009, "name": "ROWLETT H S", "spending_all": 20726514.0, "spending_bilingual": 2677.0, "students_el": 29.0, "students_all": 688.0, "spending_percentage_bilingual": 0.00012915823664317116, "students_percentage_el": 0.042151162790697666, "ratio": 4.453732298040385e-06}, "geometry": {"type": "Point", "coordinates": [-96.5528550168455, 32.9009789803957]}}, {"type": "Feature", "properties": {"id": 57909010, "name": "SACHSE H S", "spending_all": 22603557.0, "spending_bilingual": 109649.0, "students_el": 43.0, "students_all": 728.0, "spending_percentage_bilingual": 0.004850962173785303, "students_percentage_el": 0.059065934065934064, "ratio": 0.00011281307380896054}, "geometry": {"type": "Point", "coordinates": [-96.5852909712013, 32.9614290143376]}}, {"type": "Feature", "properties": {"id": 57910001, "name": "GRAND PRAIRIE FINE ARTS ACADEMY", "spending_all": 5367445.0, "spending_bilingual": 0.0, "students_el": 5.0, "students_all": 93.0, "spending_percentage_bilingual": 0.0, "students_percentage_el": 0.053763440860215055, "ratio": 0.0}, "geometry": {"type": "Point", "coordinates": [-97.0045682406318, 32.7539705709851]}}, {"type": "Feature", "properties": {"id": 57910002, "name": "GRAND PRAIRIE H S", "spending_all": 21863342.0, "spending_bilingual": 24745.0, "students_el": 248.0, "students_all": 654.0, "spending_percentage_bilingual": 0.0011318031799530009, "students_percentage_el": 0.3792048929663608, "ratio": 4.563722499810487e-06}, "geometry": {"type": "Point", "coordinates": [-97.004536403732, 32.7540284954188]}}, {"type": "Feature", "properties": {"id": 57910003, "name": "SOUTH GRAND PRAIRIE H S", "spending_all": 24949369.0, "spending_bilingual": 0.0, "students_el": 92.0, "students_all": 703.0, "spending_percentage_bilingual": 0.0, "students_percentage_el": 0.13086770981507825, "ratio": 0.0}, "geometry": {"type": "Point", "coordinates": [-97.0055200327233, 32.6953669980886]}}, {"type": "Feature", "properties": {"id": 57910009, "name": "CROSSWINDS ACCELERATED H S", "spending_all": 2778734.0, "spending_bilingual": 42405.0, "students_el": 110.0, "students_all": 379.0, "spending_percentage_bilingual": 0.015260546709400757, "students_percentage_el": 0.29023746701846964, "ratio": 0.00013873224281273417}, "geometry": {"type": "Point", "coordinates": [-97.0185020090605, 32.7565760130726]}}, {"type": "Feature", "properties": {"id": 57910010, "name": "JOHN A DUBISKI CAREER H S", "spending_all": 11727466.0, "spending_bilingual": 0.0, "students_el": 126.0, "students_all": 397.0, "spending_percentage_bilingual": 0.0, "students_percentage_el": 0.3173803526448363, "ratio": 0.0}, "geometry": {"type": "Point", "coordinates": [-97.0232589901103, 32.7004849876921]}}, {"type": "Feature", "properties": {"id": 57912002, "name": "IRVING H S", "spending_all": 22602739.0, "spending_bilingual": 14623.0, "students_el": 170.0, "students_all": 580.0, "spending_percentage_bilingual": 0.0006469569904780124, "students_percentage_el": 0.29310344827586204, "ratio": 3.8056293557530143e-06}, "geometry": {"type": "Point", "coordinates": [-96.9494649658355, 32.824843009997]}}, {"type": "Feature", "properties": {"id": 57912003, "name": "MACARTHUR H S", "spending_all": 22442347.0, "spending_bilingual": 15781.0, "students_el": 130.0, "students_all": 660.0, "spending_percentage_bilingual": 0.0007031795738654251, "students_percentage_el": 0.19696969696969696, "ratio": 5.4090736451186545e-06}, "geometry": {"type": "Point", "coordinates": [-96.9574840172735, 32.8538099878407]}}, {"type": "Feature", "properties": {"id": 57912004, "name": "NIMITZ H S", "spending_all": 21328671.0, "spending_bilingual": 11984.0, "students_el": 140.0, "students_all": 536.0, "spending_percentage_bilingual": 0.0005618727955436137, "students_percentage_el": 0.26119402985074625, "ratio": 4.013377111025812e-06}, "geometry": {"type": "Point", "coordinates": [-96.9468239960306, 32.7927979891359]}}, {"type": "Feature", "properties": {"id": 57912005, "name": "BARBARA CARDWELL CAREER PREPARATORY CENTER", "spending_all": 5234155.0, "spending_bilingual": 2398.0, "students_el": 51.0, "students_all": 163.0, "spending_percentage_bilingual": 0.00045814462888470056, "students_percentage_el": 0.3128834355828221, "ratio": 8.98322801734707e-06}, "geometry": {"type": "Point", "coordinates": [-96.9454229611007, 32.8217940087865]}}, {"type": "Feature", "properties": {"id": 57912006, "name": "JACK E SINGLEY ACADEMY", "spending_all": 13770637.0, "spending_bilingual": 5841.0, "students_el": 51.0, "students_all": 376.0, "spending_percentage_bilingual": 0.00042416338474393015, "students_percentage_el": 0.1356382978723404, "ratio": 8.31692911262608e-06}, "geometry": {"type": "Point", "coordinates": [-96.9624519711815, 32.8676210167965]}}, {"type": "Feature", "properties": {"id": 57913001, "name": "LANCASTER H S", "spending_all": 15685722.0, "spending_bilingual": 801.0, "students_el": 12.0, "students_all": 469.0, "spending_percentage_bilingual": 5.1065548656287544e-05, "students_percentage_el": 0.0255863539445629, "ratio": 4.255462388023962e-06}, "geometry": {"type": "Point", "coordinates": [-96.7619249949425, 32.6150930077362]}}, {"type": "Feature", "properties": {"id": 57914001, "name": "MESQUITE H S", "spending_all": 23314653.0, "spending_bilingual": 148731.0, "students_el": 72.0, "students_all": 658.0, "spending_percentage_bilingual": 0.006379292885036718, "students_percentage_el": 0.1094224924012158, "ratio": 8.860129006995443e-05}, "geometry": {"type": "Point", "coordinates": [-96.5935729610233, 32.7645860110356]}}, {"type": "Feature", "properties": {"id": 57914002, "name": "NORTH MESQUITE H S", "spending_all": 23470130.0, "spending_bilingual": 214411.0, "students_el": 69.0, "students_all": 601.0, "spending_percentage_bilingual": 0.00913548412386297, "students_percentage_el": 0.11480865224625625, "ratio": 0.0001323983206356952}, "geometry": {"type": "Point", "coordinates": [-96.6300680189239, 32.8089999979516]}}, {"type": "Feature", "properties": {"id": 57914003, "name": "WEST MESQUITE H S", "spending_all": 18878236.0, "spending_bilingual": 466.0, "students_el": 67.0, "students_all": 501.0, "spending_percentage_bilingual": 2.4684509717963048e-05, "students_percentage_el": 0.13373253493013973, "ratio": 3.68425518178553e-07}, "geometry": {"type": "Point", "coordinates": [-96.6344860374007, 32.7609410147161]}}, {"type": "Feature", "properties": {"id": 57914004, "name": "POTEET H S", "spending_all": 16574142.0, "spending_bilingual": 0.0, "students_el": 14.0, "students_all": 440.0, "spending_percentage_bilingual": 0.0, "students_percentage_el": 0.031818181818181815, "ratio": 0.0}, "geometry": {"type": "Point", "coordinates": [-96.6086739658308, 32.8066339958623]}}, {"type": "Feature", "properties": {"id": 57914005, "name": "HORN H S", "spending_all": 25652438.0, "spending_bilingual": 0.0, "students_el": 50.0, "students_all": 616.0, "spending_percentage_bilingual": 0.0, "students_percentage_el": 0.08116883116883117, "ratio": 0.0}, "geometry": {"type": "Point", "coordinates": [-96.5573570212095, 32.7312109908946]}}, {"type": "Feature", "properties": {"id": 57916002, "name": "LAKE HIGHLANDS H S", "spending_all": 64432489.0, "spending_bilingual": 205037.0, "students_el": 118.0, "students_all": 634.0, "spending_percentage_bilingual": 0.0031821989679771644, "students_percentage_el": 0.1861198738170347, "ratio": 2.6967787864213256e-05}, "geometry": {"type": "Point", "coordinates": [-96.7267019750161, 32.8873699958287]}}, {"type": "Feature", "properties": {"id": 57916003, "name": "RICHARDSON H S", "spending_all": 26876005.0, "spending_bilingual": 188168.0, "students_el": 59.0, "students_all": 638.0, "spending_percentage_bilingual": 0.007001338182516336, "students_percentage_el": 0.09247648902821316, "ratio": 0.00011866674885620909}, "geometry": {"type": "Point", "coordinates": [-96.7623200347418, 32.9539870155883]}}, {"type": "Feature", "properties": {"id": 57916004, "name": "PEARCE H S", "spending_all": 24936948.0, "spending_bilingual": 137697.0, "students_el": 69.0, "students_all": 590.0, "spending_percentage_bilingual": 0.005521806437580093, "students_percentage_el": 0.11694915254237287, "ratio": 8.002618025478395e-05}, "geometry": {"type": "Point", "coordinates": [-96.7661619637036, 32.9725180211898]}}, {"type": "Feature", "properties": {"id": 57916005, "name": "BERKNER H S", "spending_all": 30027793.0, "spending_bilingual": 133422.0, "students_el": 108.0, "students_all": 610.0, "spending_percentage_bilingual": 0.004443283593969094, "students_percentage_el": 0.17704918032786884, "ratio": 4.114151475897309e-05}, "geometry": {"type": "Point", "coordinates": [-96.6932969903638, 32.9360929943962]}}, {"type": "Feature", "properties": {"id": 57922001, "name": "COPPELL H S", "spending_all": 42062923.0, "spending_bilingual": 83464.0, "students_el": 26.0, "students_all": 906.0, "spending_percentage_bilingual": 0.001984265335055293, "students_percentage_el": 0.028697571743929364, "ratio": 7.631789750212665e-05},